locations,latitude,longitude,country
"Bungay, Suffolk",52.4562248,1.4373413000000002,United Kingdom
"Faversham, Kent",51.314408799999995,0.8911894,United Kingdom
"Bristol, Gloucestershire",51.8527674,-2.2553693999999997,United Kingdom
"Round Rock, Texas",30.508235,-97.6788934,United States of America
"Brooklyn, New York",40.6501038,-73.9495823,United States of America
"Cincinnati, Ohio",39.1014537,-84.5124602,United States of America
"Downingtown, Pennsylvania",40.006495799999996,-75.70327420000002,United States of America
"Coronado, California",32.691519899999996,-117.1766947,United States of America
"Bury St. Edmunds, Suffolk",52.24603670000001,0.7125173,United Kingdom
"Chiswick, Greater London",51.492313700000004,-0.263818,United Kingdom
"Wainfleet, Lincolnshire",53.105126,0.2345366,United Kingdom
"Mainz, Rhineland-Palatinate",50.0012314,8.276251299999998,Germany
"Southwold, Suffolk",52.3266586,1.6794539000000002,United Kingdom
"Bremen, Bremen",53.0758196,8.8071646,
"Oldenburg, Lower Saxony",53.13897530000001,8.214601700000001,Germany
"Grand Rapids, Michigan",42.96324050000001,-85.66786390000001,United States of America
"Leeds, West Yorkshire",53.797418500000006,-1.5437941000000002,United Kingdom
"Frederick, Maryland",39.4142186,-77.4109269,United States of America
"Munich, Bavaria",48.1371079,11.575382199999998,Germany
"Comstock, Michigan",42.2867083,-85.51333740000003,United States of America
"Pompano Beach, Florida",26.2378597,-80.1247667,United States of America
"Canmore, Alberta",51.08668970000001,-115.3481135,Canada
"San Francisco, California",37.779026200000004,-122.4199061,United States of America
"Aldergrove, British Columbia",49.0596635,-122.49223810000001,Canada
"Vancouver, British Columbia",49.2608724,-123.11395290000002,Canada
"Victoria, British Columbia",48.4283182,-123.36495330000001,Canada
"Chilliwack, British Columbia",49.157677,-121.9514307,Canada
"Bowburn, Durham",54.7395825,,
"Kamloops, British Columbia",50.6758269,-120.33941589999999,Canada
"Glenwood Springs, Colorado",39.5507448,-107.3255001,United States of America
"Stockport, Greater Manchester",53.407901,-2.160243,United Kingdom
"Badley, Suffolk",52.17153620000001,1.0209354,United Kingdom
"Skælskør, Denmark",55.2521101,11.2942011,Denmark
"Nishikanbara-gun, Niigata-ken, Japan",,,
"Portland, Oregon",45.5202471,-122.6741949,United States of America
"Manchester, Greater Manchester",53.479489199999996,-2.2451147999999996,United Kingdom
"Piozzo, Italy",44.51565479999999,7.8922570000000025,Italy
"San Antonio, Texas",29.424600199999997,-98.4951405,United States of America
"Port Townsend, Washington",48.1185325,-122.7679629,United States of America
"Ottawa, Ontario",45.421106,-75.690308,Canada
"Torrance, California",33.83584920000001,-118.34062879999999,United States of America
"Barrie, Ontario",44.389311299999996,-79.6901736,Canada
"Aschaffenburg, Bavaria",49.97405420000001,9.1493636,Germany
"Boston, Massachusetts",42.3602534,-71.0582912,United States of America
"Elk Grove Village, Illinois",,-88.00399428423424,
"Keene, New Hampshire",42.933597,-72.27842640000001,United States of America
"Fort Collins, Colorado",40.5508527,-105.0668085,United States of America
"Longmont, Colorado",40.1672117,-105.1019287,United States of America
"East Stroudsburg, Pennsylvania",40.9995386,-75.1812913,United States of America
"Tinley Park, Illinois",41.573366899999996,-87.7844944,United States of America
"Greeley, Colorado",40.42331420000001,-104.7091322,United States of America
"Waunakee, Wisconsin",43.1919373,-89.4556749,United States of America
"Edmonton, Alberta",53.535410999999996,-113.50799599999999,Canada
"Santa Rosa, California",38.4404925,-122.71410490000001,United States of America
"Warrenton, Virginia",38.713549799999996,-77.795367,United States of America
"Newington, New Hampshire",43.100482,-70.834351,United States of America
"Mamaroneck, New York",40.9487097,-73.7326309,United States of America
"Chicago, Illinois",41.87556160000001,-87.6244212,United States of America
"St. Louis, Missouri",38.6529545,-90.24111656024635,United States of America
"Eau Claire, Wisconsin",44.811349,-91.4984941,United States of America
"Farmingdale, New York",40.735673799999994,-73.44175240000001,United States of America
"Rigaud, Quebec",45.479448100000006,-74.3019608,Canada
"Auburn, California",38.894593900000004,-121.07398970000001,United States of America
"Arvada, Colorado",39.821122499999994,-105.22074299044588,United States of America
"Dunham, Quebec",45.130469,-72.800903,Canada
"Denver, Colorado",39.7392364,-104.98486229999999,United States of America
"Richmond, Virginia",37.53850870000001,-77.43428,United States of America
"Escondido, California",33.1216751,-117.08148490000002,United States of America
"Bedford, Bedfordshire",52.1363806,-0.46750410000000003,United Kingdom
"Burlington, Ontario",43.3248924,-79.7966835,Canada
"Baltimore, Maryland",39.2908816,-76.610759,United States of America
"Asheville, North Carolina",35.60094979999999,-82.5540161,United States of America
"Paso Robles, California",35.6267654,-120.6912456,United States of America
"Eureka, California",40.80207120000001,-124.16367290000001,United States of America
"Cherry Hill, New Jersey",39.9348351,-75.0307264,United States of America
"Anaheim, California",33.8347516,-117.911732,United States of America
"San Diego, California",32.7174209,-117.16277140000001,United States of America
"Mayne Island, British Columbia",48.84438285,-123.28755177004037,Canada
"Port Crane, New York",42.1642428,-75.8335265,United States of America
", Illinois",40.079660600000004,-89.4337288,United States of America
"Seattle, Washington",47.6038321,-122.3300624,United States of America
"New Glarus, Wisconsin",42.8145157,-89.63387519999998,United States of America
"Rockville, Maryland",39.0840054,-77.15275729999998,United States of America
"Big Lake, Minnesota",45.3324647,-93.7460804,United States of America
"Saint Petersburg, Florida",27.770379600000002,-82.66950849999998,United States of America
"New York, New York",40.7127281,-74.0060152,United States of America
"Broussard, Louisiana",30.1471506,-91.9612413,United States of America
"Tilton, New Hampshire",43.44245,-71.588974,United States of America
"Grand Haven, Michigan",43.0630734,-86.2283864,United States of America
"Charlotte, North Carolina",35.2270869,-80.8431268,United States of America
"Easton, Pennsylvania",40.6916081,-75.2099866,United States of America
"Salt Lake City, Utah",40.759619799999996,-111.88679750000001,United States of America
"Frisco, Colorado",39.5744299,-106.0975196,United States of America
"Amherst, Wisconsin",44.45067750000001,-89.28459050000002,United States of America
"Squamish, British Columbia",49.698074299999995,-123.15586119999999,Canada
"Placentia, California",33.8714814,-117.8617337,United States of America
"Truckee, California",39.327962,-120.1832533,United States of America
"Miami, Florida",25.7742658,-80.1936589,United States of America
"Astoria, Oregon",46.187884999999994,-123.83125600000001,United States of America
"Tulsa, Oklahoma",36.1556805,-95.9929113,United States of America
"Redmond, Washington",47.6694141,-122.1238767,United States of America
"Collingwood, Ontario",44.50272260000001,-80.2172379,Canada
"Arlington, Washington",48.18109570000001,-122.1389548,United States of America
"San Marcos, California",33.1433723,-117.1661449,United States of America
"Minneapolis, Minnesota",44.9772995,-93.2654692,United States of America
"Milton, Delaware",38.7778787,-75.31006359999998,United States of America
"Austin, Texas",30.2711286,-97.7436995,United States of America
"Utica, New York",43.100903100000004,-75.2326641,United States of America
"Vista, California",33.2000368,-117.2425355,United States of America
"Barrington, New Hampshire",43.223191,-71.047211,United States of America
"Cooperstown, New York",42.70063029999999,-74.92432099999998,United States of America
"Athens, Ohio",39.355589,,
"Chico, California",39.728494500000004,-121.8374777,United States of America
"Hamilton, Ontario",43.2560802,-79.8728583,Canada
"Tadcaster, North Yorkshire",53.8852975,-1.2595975,United Kingdom
"Raleigh, North Carolina",35.7803977,-78.63909890000002,United States of America
"Coopersburg, Pennsylvania",40.51146,-75.3903376,United States of America
"Charlton, Massachusetts",42.1348444,-71.9643153,United States of America
"Waterloo, Ontario",43.466874,-80.524635,Canada
"Oshkosh, Wisconsin",44.0206919,-88.54085740000002,United States of America
"Knoxville, Tennessee",35.960394799999996,-83.92102609999998,United States of America
"Stroudsburg, Pennsylvania",40.9864261,-75.1946649,United States of America
"Memphis, Tennessee",35.1490215,-90.0516285,United States of America
"Straubing, Bavaria",48.88198010000001,12.569716,Germany
"Trois-Rivières, Quebec",46.332706,-72.55645799999998,Canada
"Somerset, Kentucky",37.0920222,-84.6041084,United States of America
"Timberville, Virginia",38.6390069,-78.77391120000001,United States of America
"Hackney, Greater London",51.5432402,-0.0493621,United Kingdom
"Poughkeepsie, New York",41.7065779,-73.9284101,United States of America
"Hyattsville, Maryland",38.95294420000001,-76.9408647,United States of America
"Weymouth, Massachusetts",42.221218799999995,-70.9391625,United States of America
"Davis, California",38.545379,-121.74458349999999,United States of America
"Columbus, Ohio",39.9622601,-83.00070649999998,United States of America
"Saltaire, West Yorkshire",53.837108900000004,-1.7906734,United Kingdom
"Vankleek Hill, Ontario",45.5196086,-74.6519669,Canada
"Aying, Bavaria",47.9700185,11.7787094,Germany
"Saint-Casimir, Quebec",46.656506,-72.139664,Canada
"Loveland, Ohio",39.26895620000001,-84.2638406,United States of America
"South Windsor, Connecticut",41.8489872,-72.5717551,United States of America
"Bayreuth, Bavaria",49.942720200000004,11.5763079,Germany
"Chambly, Quebec",45.447389799999996,-73.2932002,Canada
"Boise, Idaho",43.6166163,-116.20088600000001,United States of America
"Garden City, Idaho",43.622111,-116.2381787,United States of America
"Leesburg, Virginia",39.11544960000001,-77.5645446,United States of America
"Aldermaston Stoke, Berkshire",,,
"Long Island City, New York",40.7415095,-73.9569751,United States of America
"Bloomington, Indiana",39.1670396,-86.5342881,United States of America
"Boulder, Colorado",,-105.2705456,
"Huddersfield, West Yorkshire",53.6466645,-1.7822482,United Kingdom
"Fairfield, New Jersey",40.205087799999994,-74.2135004,United States of America
"Hemel Hempstead, Hertfordshire",51.7511784,-0.47252799999999995,United Kingdom
"Neckarsulm, Baden-Württemberg",49.191734999999994,9.2249443,Germany
"Darmstadt, Hesse",49.872775,8.651177,Germany
"Autenried (Ichenhausen), Bavaria",48.364828700000004,10.2531614,Germany
"Mason, Ohio",39.3600586,-84.309939,United States of America
"Erith, Greater London",51.4775613,0.1823013,United Kingdom
"Meschede-Grevenstein, North Rhine-Westphalia",51.3326845,8.1596644,Germany
"Cambridge, Ontario",43.3600536,-80.3123023,Canada
"Frome, Somerset",51.227055799999995,-2.3192971,United Kingdom
"Toronto, Ontario",43.6534817,-79.38393470000003,Canada
"Honiton, Devon",50.7981119,-3.1924599,United Kingdom
"Gaithersburg, Maryland",39.14344060000001,-77.2013705,United States of America
"Newcastle-upon-Tyne, Tyne & Wear",54.97384739999999,-1.6131572,United Kingdom
"Etobicoke, Ontario",43.67145915,-79.55249206611668,Canada
"Decorah, Iowa",43.3033056,-91.7857092,United States of America
"Burlington, Vermont",44.4762975,-73.21354720000002,United States of America
"Portland, Maine",43.6610277,-70.25485959999999,United States of America
"Stratford, Connecticut",41.184541499999995,-73.1331651,United States of America
"Zawiercie, Poland",50.48443820000001,19.433394,Poland
"Fargo, North Dakota",46.877229,-96.78982099999999,United States of America
"Dallas, Texas",32.7762719,-96.7968559,United States of America
"Caledon, Ontario",43.875427,-79.858285,Canada
"Saint-Fulgence, Quebec",48.450314299999995,-70.90338990000002,Canada
"Richmond, Kentucky",37.74785720000001,-84.29465390000001,United States of America
"Oklahoma City, Oklahoma",35.4729886,-97.5170536,United States of America
"Hatfield, Pennsylvania",40.2796371,-75.2995777,United States of America
"Akron, Ohio",41.083064,-81.518485,United States of America
"Cheltenham, Gloucestershire",51.8995685,-2.0711559,United Kingdom
"Earsham, Norfolk",52.4502075,1.4172978999999999,United Kingdom
"Charlottesville, Virginia",38.029306,-78.4766781,United States of America
"Indianapolis, Indiana",39.7683331,-86.1583502,United States of America
"Teisendorf, Bavaria",47.849038,12.8218357,Germany
"Montréal, Quebec",45.4972159,-73.61036419999998,Canada
"West Norwood, Greater London",51.43461920000001,-0.1036917,United Kingdom
"Tottenham Hale, Greater London",51.5881223,-0.0599366,United Kingdom
"Itterbeek, Belgium",51.156967,5.7919803,The Netherlands
"Freising, Bavaria",48.400827299999996,11.7439565,Germany
"North Wales, Pennsylvania",40.2109404,-75.2782317,United States of America
"Munster, Indiana",41.564479799999994,-87.5125412,United States of America
"Mannheim, Baden-Württemberg",49.489591,8.467236,Germany
"South Glens Falls, New York",43.299447,-73.635178,United States of America
"East Fishkill, New York",41.5533306,-73.7956214,United States of America
"Salford, Greater Manchester",53.4877463,-2.2891921,United Kingdom
"Hamburg , Hamburg",47.7630597,-99.51456999999999,United States of America
"Bermondsey, Greater London",51.4970125,-0.06326799999999999,United Kingdom
"Cheshunt, Hertfordshire",51.702052,-0.033590800000000004,United Kingdom
"Petting/Schönram, Bavaria",,,
"Ketchum, Idaho",43.680741,-114.363662,United States of America
"Ferndale, Michigan",42.4605917,-83.1346478,United States of America
"Freiburg im Breisgau, Baden-Württemberg",47.9960901,7.8494005000000024,Germany
"Finchampstead, Berkshire",51.37490835,-0.8129636678949486,United Kingdom
"Aldersbach, Bavaria",48.58817929999999,13.0846579,Germany
"Barnes, Greater London",51.4718962,-0.23874410000000001,United Kingdom
"Southport, Merseyside",53.647598800000004,-3.0041751,United Kingdom
"Bromyard, Herefordshire",52.1884704,-2.5107318,United Kingdom
"Paddington, Greater London",51.5170856,-0.1775422,United Kingdom
"East Peckham, Kent",51.2131511,0.3865789,United Kingdom
"Spencer, Massachusetts",42.2482063,-71.9938312,United States of America
"Versailles, Kentucky",38.052576,-84.7299464,United States of America
"Geldern, North Rhine-Westphalia",51.5169736,6.3228189000000015,Germany
"Kirkbymoorside, North Yorkshire",54.2706507,-0.9323561,United Kingdom
"Sutton, Quebec",45.1109765,-72.6177899,Canada
"Skagen, Denmark",57.7259703,10.5844602,Denmark
"Zwiefalten, Baden-Württemberg",48.2331643,9.4614966,Germany
"Queens, New York",40.74982429999999,-73.7976337,United States of America
"Kelheim, Bavaria",48.9187285,11.8727886,Germany
"Berlin, Berlin",46.3785823,-98.4898183,United States of America
"Newburn, Tyne & Wear",54.983543000000004,-1.7405072,United Kingdom
"West Acre, Norfolk",52.70588000000001,0.6317901,United Kingdom
"Witney, Oxfordshire",51.78593660000001,-1.4850584999999998,United Kingdom
"Portsmouth, New Hampshire",43.07175520000001,-70.7625532,United States of America
"Wolverhampton, West Midlands",52.58476510000001,-2.127567,United Kingdom
"Nottingham, Nottinghamshire",52.9534193,-1.1496461,United Kingdom
"Esher, Surrey",51.3693929,-0.3654406,United Kingdom
"Seeon, Bavaria",47.9765682,12.4598714,Germany
"Stuttgart, Baden-Württemberg",48.778448499999996,9.1800132,Germany
"Stowmarket, Suffolk",52.187814700000004,0.9973428,United Kingdom
"Mariendorf, Berlin",52.44008,13.390027700000001,Germany
"Walworth, Greater London",51.49011420000001,-0.09066030000000001,United Kingdom
"Brighton , East Sussex",50.78357855,0.12148666117747367,United Kingdom
"Newcastle upon Tyne , Tyne & Wear",54.97384739999999,-1.6131572,United Kingdom
"North Bay  , Ontario",46.309211499999996,-79.4607617,Canada
"Timmins, Ontario",48.477472999999996,-81.330414,Canada
"North Bay, Ontario",46.309211499999996,,
"Bakewell, Derbyshire",53.2148429,-1.6758613000000002,United Kingdom
"Birmingham, Alabama",33.5206824,-86.80243259999996,United States of America
"Guelph, Ontario",43.5460516,-80.2493276,Canada
"Rulles, Belgium",49.7264021,5.6249972999999995,Belgium
"Leyton, Greater London",51.5696734,-0.015681,United Kingdom
"Halifax, Nova Scotia",44.648618,-63.58594870000001,Canada
"Snetterton, Norfolk",52.48210110000001,0.9352583000000001,United Kingdom
"Wanstead, Greater London",51.5756739,0.027798900000000005,United Kingdom
"Zwönitz, Saxony",50.6301029,12.8131994,Germany
"Matane, Quebec",48.846863299999995,-67.52959770000001,Canada
"Saint-Jean-sur-Richelieu, Quebec",45.305687899999995,-73.25334009999997,Canada
"Seaham, Durham",54.83721060000001,-1.3355612,United Kingdom
"Cragg Vale, West Yorkshire",53.7050193,-1.9983650000000002,United Kingdom
"Markham, Ontario",43.854335999999996,-79.326782,Canada
"Keswick, Cumbria",54.5998993,-3.1326786179762363,United Kingdom
"Clun, Shropshire",52.4211807,-3.0300583999999997,United Kingdom
"Gravenhurst, Ontario",,-79.373131,
"Québec, Quebec",46.8259601,-71.23522259999999,Canada
"Nürnberg, Bavaria",49.453872,11.077297999999999,Germany
"Chicoutimi, Quebec",48.337024799999995,-71.12352613559267,Canada
"Kincardine, Ontario",44.1776378,,
"Wellington, Ontario",43.75901210000001,-80.46149940000002,Canada
"Iisalmi, Finland",63.5567679,27.1892281,Finland
"Reading, Berkshire",51.456659,-0.9696511999999999,United Kingdom
"Liverpool, Merseyside",53.401337899999994,,
"Hillier, Ontario",43.974088099999996,-77.45505899999998,Canada
"Walthamstow, Greater London",51.5844701,-0.018818599999999998,United Kingdom
"Purcellville, Virginia",39.1367717,-77.7147153,United States of America
"Morganton, North Carolina",35.7454291,-81.6870837,United States of America
"Perkasie, Pennsylvania",40.372048,,
"Picton, Ontario",44.0077172,,
"Bethnal Green, Greater London",51.530345600000004,-0.056163300000000006,United Kingdom
"Gundelfingen , Bavaria",48.55214455,10.364145418379684,Germany
"Leyland, Lancashire",53.690481299999995,-2.6991336,United Kingdom
"Rambin auf Rügen, Mecklenburg-Vorpommern",,,
"München / Unterschleissheim, Bavaria",48.2817,11.576298399999999,Germany
"Herndon, Virginia",38.969531599999996,-77.3859479,United States of America
"Sint-Truiden, Belgium",50.8152784,5.185889599999999,Belgium
"Kingston, Ontario",44.230686999999996,-76.481323,Canada
"Charlottetown, Prince Edward Island",46.2906776,-63.129478293662345,Canada
"Perth , Ontario",43.493599100000004,-81.01641109999998,Canada
"Ashton, Ontario",45.156796299999996,-76.03226490000002,Canada
"Lanark Highlands, Ontario",45.0875524,-76.48559826942638,Canada
"Hinesburg, Vermont",44.329251,-73.111267,United States of America
"Millvale, Pennsylvania",40.480069,-79.9783862,United States of America
"Deptford, Greater London",51.475845299999996,-0.0215164,United Kingdom
"Inglewood, California",33.9562003,-118.353132,United States of America
"Ellingen, Bavaria",49.0615224,10.9693369,Germany
"Battersea, Greater London",51.4707933,-0.172214,United Kingdom
"Braybrooke, Northamptonshire",52.45134839999999,-0.875906,United Kingdom
"Ipswich, Suffolk",52.0579495,1.1526345,United Kingdom
"Northfleet, Kent",51.4459453,0.3239669000000001,United Kingdom
"Oettingen, Bavaria",48.943472899999996,10.601307292325565,Germany
", Norfolk",52.666667000000004,1.0,United Kingdom
"Ertvelde, Belgium",51.17835295,3.76014133858078,Belgium
"Norfolk, Virginia",36.846292299999995,-76.2929252,United States of America
"Los Angeles, California",34.0536909,-118.2427666,United States of America
"Southminster, Essex",51.6618541,0.8300674000000001,United Kingdom
"Billings, Montana",45.78749570000001,-108.49606999999999,United States of America
"Saint-Hyacinthe, Quebec",45.627484,-72.940636,Canada
"Mesilla, New Mexico",32.2741174,-106.79520559999999,United States of America
"Julian, California",33.078596999999995,-116.60231540000001,United States of America
"Normal, Illinois",40.5117699,-88.99448149999998,United States of America
"Ashland, Oregon",42.1972487,-122.71539950000002,United States of America
"Melle, Belgium",51.003029999999995,3.7988833,Belgium
"Vernon, British Columbia",50.26827700000001,-119.267578,Canada
"Exeter, Devon",50.725562,-3.5269108,United Kingdom
"Redditch, Worcestershire",52.3057655,-1.9417444,United Kingdom
"Maidenhead, Berkshire",51.523792900000004,-0.7189899000000001,United Kingdom
"Brighton, East Sussex",50.78357855,0.12148666117747367,United Kingdom
"Buxton, Derbyshire",53.2607853,-1.9131016,United Kingdom
"Bitburg, Rhineland-Palatinate",49.97327620000001,6.524947,Germany
"Sollefteå, Sweden",63.44166445000001,16.74939662345058,Sweden
"Pershore, Worcestershire",52.109699299999996,-2.0754758,United Kingdom
"Varel, Lower Saxony",53.395777,8.1372149,Germany
"Great Barton, Suffolk",52.2709279,0.770001,United Kingdom
"Borna, Saxony",51.1241649,12.499905499999999,Germany
"Kaufbeuren, Bavaria",47.880378799999995,10.622246,Germany
"Pipaix, Belgium",50.58286500000001,3.5758870000000003,Belgium
"Elsendorf, Bavaria",48.710118200000004,11.8069746,Germany
"Hadnall, Shropshire",52.78025155,-2.7184440833553447,United Kingdom
"Atherstone, Warwickshire",52.5772439,-1.5433953999999999,United Kingdom
"Petaluma, California",38.270022,-122.60612241304348,United States of America
"Coralville, Iowa",41.6764044,-91.58044749999999,United States of America
"Alpine, Wyoming",43.161566,-111.01945677102535,
"Orange , California",33.750037799999994,-117.87049309999999,United States of America
"Berkeley, California",37.8708393,-122.27286389999999,United States of America
"Rochester, Minnesota",44.02343870000001,-92.46301820000001,United States of America
"Port Moody, British Columbia",49.282224299999996,-122.82934240000002,Canada
"Boardman, Oregon",45.839855,-119.7005834,United States of America
"Northville, Michigan",42.4310806,-83.4832262,United States of America
"Bloomington, Illinois",40.473107299999995,-88.9941403,United States of America
"Greensboro, Vermont",44.5768593,-72.29606340000002,United States of America
"New Westminster, British Columbia",49.2067726,-122.9108818,Canada
"Moorpark, California",34.285558,-118.8820414,United States of America
"Prineville, Oregon",44.2998261,-120.834972,United States of America
"Winter Garden, Florida",28.5502685,-81.59259746085962,United States of America
"Bracebridge, Ontario",45.041508,-79.310989,Canada
"Framingham, Massachusetts",42.2792625,-71.416172,United States of America
"Schiller Park, Illinois",41.9558637,-87.8708965,United States of America
"St Paul, Minnesota",44.9504037,-93.10150259999999,United States of America
"Long Beach, California",33.7690164,-118.1916048,United States of America
"McCall, Idaho",44.911006,-116.0987364,United States of America
"Cape May, New Jersey",39.1765386,-74.80121190000001,United States of America
"Maplewood, Missouri",38.6125521,-90.32455990000001,United States of America
"San Carlos, California",37.504936,-122.2618236,United States of America
"Cleveland, Ohio",41.5051613,-81.6934446,United States of America
"Santa Barbara, California",34.4221319,-119.7026673,United States of America
"Milwaukie, Oregon",45.445390100000004,-122.6392889,United States of America
"Parkersburg, West Virginia",39.2699565,-81.5506916,United States of America
"Kaltenberg, Bavaria",48.2237631,10.645466699999998,Germany
"Tokyo                      , Japan",35.68283870000001,139.7594549,Japan
"Dania Beach, Florida",26.050783950000003,-80.14612392627231,United States of America
"Seaforth, Ontario",43.553432799999996,-81.3934183,Canada
"Summerland, British Columbia",49.6,-119.66666699999999,Canada
"Hood River, Oregon",45.70531010000001,-121.52179270000002,United States of America
"Sheffield, South Yorkshire",53.38066260000001,-1.4702278,United Kingdom
"Harrogate, North Yorkshire",53.992149100000006,-1.5391039,United Kingdom
"Walland, Tennessee",35.7281419,-83.8132305,United States of America
"Lye, West Midlands",52.4599417,-2.1160497000000005,United Kingdom
"Grafing, Bavaria",48.0502855,11.9661337,Germany
"Abbotsford, British Columbia",49.0521162,-122.32947920000001,Canada
"Florissant, Missouri",38.79196829999999,-90.32278029999999,United States of America
"Ardmore, Pennsylvania",40.006778600000004,-75.2854622,United States of America
"Beamsville, Ontario",43.16545770000001,-79.4751839,Canada
"Gatineau, Quebec",45.4283596,-75.7106204,Canada
"Santa Rosa Beach, Florida",30.34664230000001,-86.2307992,United States of America
"Chatham , Ontario",42.405721899999996,-82.1853837,Canada
"Kelowna, British Columbia",49.889326000000004,-119.498291,Canada
"Port Coquitlam, British Columbia",49.262164299999995,-122.78054250000001,Canada
"Würzburg, Bavaria",49.79245,9.932966,Germany
"Plover, Wisconsin",44.4563579,-89.544007,United States of America
"Tring, Hertfordshire",51.7940357,-0.6609205,United Kingdom
"Madison, Wisconsin",43.074760999999995,-89.3837613,United States of America
"Hooksett, New Hampshire",43.096971999999994,-71.465378,United States of America
"Polegate, East Sussex",50.8231619,0.245475,United Kingdom
"Charleston, West Virginia",38.3505995,-81.6332812,United States of America
"Bath, Somerset",51.3813864,-2.3596963,United Kingdom
"Ponderay, Idaho",48.3054806,-116.5338037,United States of America
"Trinidad, Colorado",37.169397,-104.50054109999999,United States of America
"Aston, Pennsylvania",39.87265415,-75.44054729049847,United States of America
"Livingston , New York",42.7360902,-77.7781416,United States of America
"Lakewood, New York",42.104224,-79.333104,United States of America
"Tampa, Florida",27.947759499999997,-82.458444,United States of America
"Halethorpe, Maryland",39.2398292,-76.68024709999997,United States of America
"Bend, Oregon",44.058172799999994,-121.31530959999999,United States of America
"Moorhead, Minnesota",46.8739081,-96.75386740000002,United States of America
"Greenville, South Carolina",34.851354,-82.3984882,United States of America
"Prescott, Arizona",34.539996200000004,-112.4687616,United States of America
"Divide, Colorado",38.9419356,-105.1572092,United States of America
"Rochdale, Greater Manchester",53.6153659,-2.1557561,United Kingdom
"Castleford, West Yorkshire",53.72235300000001,-1.3512543,United Kingdom
"Holland, Michigan",42.7876022,-86.1090828,United States of America
"Kaltenburg, Lower Saxony",51.507253399999996,9.961554300000001,Germany
"Pilgrims Hatch, Essex",51.6401039,0.2871626,United Kingdom
"Beach Park, Illinois",42.4222435,-87.85729549999998,United States of America
"Berkeley Springs, West Virginia",39.626797499999995,-78.22795140000002,United States of America
"Waterloo, Illinois",38.3358857,-90.14983409999999,United States of America
"Allendale, Northumberland",54.8972605,-2.2590355,United Kingdom
"Waterford, Virginia",39.188317,-77.6115402,United States of America
"Green Bay, Wisconsin",44.512637899999994,-88.0125794,United States of America
"Derby, Connecticut",41.3223611,-73.08903240000002,United States of America
"Williamsburg, Virginia",37.27892105,-76.69448606443117,United States of America
"Kitchener, Ontario",43.453168,-80.494423,Canada
"Croydon, Greater London",51.3713049,-0.101957,United Kingdom
"Pender Island, British Columbia",48.77869310000001,-123.2816111,Canada
"Freeport, Maine",43.857307,-70.10376,United States of America
"Brossard, Quebec",45.4554829,-73.46789040000002,Canada
"South Burlington, Vermont",44.4669941,-73.1709604,United States of America
"Capitola, California",36.9762927,-121.9540577,United States of America
"Ponders End, Greater London",51.6428463,-0.0347837,United Kingdom
"Middleton, Greater Manchester",53.5484755,-2.1972661,United Kingdom
"Woodford, Northamptonshire",52.3819912,-0.5806142,United Kingdom
"Las Vegas, Nevada",36.1672559,-115.1485163,United States of America
"Bronx, New York",40.8466508,-73.87859370000002,United States of America
"Marengo, Ohio",40.4008945,-82.8107329,United States of America
"Pottsville, Pennsylvania",40.68513239999999,-76.19537009999998,United States of America
"Flookburgh, Cumbria",54.174380000000006,-2.9737924,United Kingdom
"Canal Winchester, Ohio",39.84292050000001,-82.81594617222838,United States of America
"Tumwater, Washington",47.0080655,-122.9103689,United States of America
"Cricklewood, Greater London",51.556698600000004,-0.21575070000000002,United Kingdom
"Fort Mcmurray, Alberta",56.729199699999995,-111.38852209999999,
"Beersel, Belgium",50.76837285,4.305109802911852,Belgium
"Penrith, Cumbria",54.66391329999999,-2.7522047,United Kingdom
"Chula Vista, California",32.6400541,-117.0841955,United States of America
"Falmouth, Cornwall",50.1552197,-5.0688262,United Kingdom
"Londonderry , New Hampshire",42.8650869,-71.3739532,United States of America
"Ocean, New Jersey",39.977818,-74.3319287,United States of America
"Houston, Texas",29.7589382,-95.36769740000001,United States of America
"South Molton, Devon",51.0170696,-3.8330599000000003,United Kingdom
"Otterfing, Bavaria",47.9100294,11.671243400000002,Germany
"Rhinelander, Wisconsin",45.636623,-89.412075,United States of America
"Chapel Hill, North Carolina",35.9131542,-79.05578,United States of America
"Manchester, New Hampshire",42.99563970000001,-71.4547891,United States of America
"Frankfurt, Hesse",50.1106444,8.682091699999999,
"Manchester , New Hampshire",42.99563970000001,-71.4547891,United States of America
"Frelighsburg, Quebec",45.056061,-72.836609,Canada
"Solon, Iowa",41.8072344,-91.49406040000001,United States of America
"Anchorage, Alaska",61.2163129,-149.8948523,United States of America
"Ammerndorf, Bavaria",49.4219506,10.851619300000001,Germany
"Oberhausen, North Rhine-Westphalia",51.469613700000004,6.851443499999999,Germany
"Sheffield , South Yorkshire",53.38066260000001,-1.4702278,United Kingdom
"Cornelius, North Carolina",35.4817982,-80.85895009999999,United States of America
"Shoreham, Vermont",43.893687,-73.316231,United States of America
"Derry, New Hampshire",42.8808677,-71.32644920000001,United States of America
"Kansas City, Missouri",39.100105,-94.5781416,United States of America
"Walsall, West Midlands",52.58479490000001,-1.9822686999999999,United Kingdom
"Ljubljana, Slovenia",46.049980299999994,14.506860199999998,Slovenia
"Oceanside, California",33.1958696,-117.3794834,United States of America
"Huntington Beach, California",33.6783336,-118.0000166,United States of America
"Plainfield, Indiana",39.704212299999995,-86.3994387,United States of America
"Montignies-sur-Roc, Belgium",50.368007899999995,3.7333222999999998,Belgium
"Dortmund, North Rhine-Westphalia",51.5142273,7.4652789,Germany
"Temecula, California",33.4946353,-117.14736609999999,United States of America
"Erding, Bavaria",48.3064441,11.9076579,Germany
"Danville, California",37.8215929,-121.9999606,United States of America
"Alameda, California",37.6090291,-121.899142,United States of America
"Las Cruces, New Mexico",32.3140354,-106.7798078,United States of America
"Ellwangen, Baden-Württemberg",48.961597499999996,10.131975,Germany
"Novato, California",38.1061979,-122.56811909999999,United States of America
"Münster, North Rhine-Westphalia",51.9625101,7.6251879,Germany
"Lainate, Italy",45.57173020000001,9.028461,Italy
"Buffalo, Missouri",37.6439289,-93.0924093,United States of America
"Rongy , Belgium",50.50665205,3.3815632027096587,Belgium
"Sudbury, Suffolk",52.0401524,0.7299495,United Kingdom
"Shepton Mallet, Somerset",51.1909451,-2.5461297999999997,United Kingdom
"Reedham, Norfolk",52.559602500000004,1.5659946000000002,United Kingdom
"Kennebunk, Maine",43.384091999999995,-70.545273,United States of America
"Rosenheim, Bavaria",47.853927299999995,12.127262,Germany
"Moos, Bavaria",48.7520542,12.962471800000001,Germany
"Miesbach, Bavaria",47.790025,11.833541699999998,Germany
"Buttenheim-Dreuschendorf, Bavaria",,,
"Luton, Bedfordshire",51.87786420000001,-0.4106231926157761,United Kingdom
"Whitbourne, Herefordshire",52.2051428,-2.421622587458483,United Kingdom
"Hamburg, Hamburg",47.7630597,-99.51456999999999,United States of America
"Neumünster, Schleswig-Holstein",54.0757442,9.981537699999999,Germany
"Bad Köstritz, Thuringia",50.9301118,12.0113701,Germany
"Sonthofen, Bavaria",47.5135363,10.281931,Germany
"Le Roeulx, Belgium",50.503403399999996,4.112245,Belgium
"Fredericton, New Brunswick",45.966425,-66.645813,Canada
"Eichendorf-Adldorf, Bavaria",,,
"Masham, North Yorkshire",54.2220086,-1.6564736,United Kingdom
"Berlin, Maryland",38.3226154,-75.2176892,United States of America
"Mount Pleasant, South Carolina",32.794065100000005,-79.86258509999998,United States of America
"Cork, Ireland",51.8979282,-8.4705806,Ireland
"Hallerndorf, Bavaria",49.7595157,10.979095599999999,Germany
"Velburg-Lengenfeld, Bavaria",49.2391408,11.635195699999999,Germany
"Blainville, Quebec",45.679320000000004,-73.87619000000002,Canada
"Heathfield , East Sussex",50.9717443,0.2517025,United Kingdom
", North Rhine-Westphalia",51.478179600000004,7.5542336,Germany
"Thalmässing, Bavaria",49.0879604,11.219959300000001,Germany
"Höchstadt an der Aisch, Bavaria",49.7046104,10.8077534,Germany
"Abensberg, Bavaria",48.8167,11.85,Germany
"Farnham, Quebec",45.2831,-72.974968,Canada
"Dewey Beach, Delaware",38.6927374,-75.0748044,United States of America
"Bamberg, Bavaria",49.8916044,10.8868478,Germany
"Newton Abbot, Devon",50.5296441,-3.6112097000000003,United Kingdom
"Ettal, Bavaria",47.569254799999996,11.0939733,Germany
"Henderson , Nevada",36.0301134,-114.98261940000002,United States of America
"Bromley, Greater London",51.4028046,0.0148142,United Kingdom
"Weißenohe, Bavaria",49.6307659,11.254778100000001,Germany
"Tillamook, Oregon",45.455921000000004,-123.844429,United States of America
"Kulmbach, Bavaria",50.1008448,11.4479149,Germany
"Asheboro, North Carolina",35.7079146,-79.8136446,United States of America
"Viereth-Weiher, Bavaria",49.9124842,10.7526505,Germany
"Richmond, British Columbia",49.163168,-123.13741399999999,Canada
"Perth, Ontario",43.493599100000004,-81.01641109999998,Canada
"Bancroft, Ontario",45.0570769,-77.8537127,Canada
"BERLIN, Berlin",46.3785823,-98.4898183,United States of America
"Buckhorn, Ontario",44.55673270000001,-78.3484101,Canada
"Lindsay, Ontario",44.3551266,-78.7369939,Canada
"Murnau, Bavaria",47.6778816,11.2011903,Germany
"Gulpen, Netherlands",50.80313155,5.8862112397873405,The Netherlands
"Toronto , Ontario",43.6534817,-79.38393470000003,Canada
"Lacombe, Alberta",52.4727515,-113.73321499999999,Canada
"Percé, Quebec",48.5222989,-64.21364229999999,Canada
"Laubus-Eschbach, Hesse",50.40400505,8.330101439904997,Germany
"Carlsbad, New Mexico",32.4257456,-104.23761209999999,United States of America
"Detmold, North Rhine-Westphalia",51.936284,8.8791526,Germany
"PANTEGO, Texas",32.7142988,-97.1564002,United States of America
"Bad Staffelstein-Stublang, Bavaria",,,
"Little Downham, Cambridgeshire",52.4336745,0.24294029999999997,United Kingdom
"Hereford, Herefordshire",52.05538129999999,-2.7151735,United Kingdom
"Rochester, Michigan",42.680588,-83.1338214,United States of America
"Malle, Belgium",51.2970123,4.6933094,Belgium
"Warstein , North Rhine-Westphalia",51.4458105,8.3536824,Germany
"St. Austell, Cornwall",50.338466,-4.7882104000000005,United Kingdom
"Bad Rappenau, Baden-Württemberg",49.2393031,9.101268,Germany
"Crailsheim, Baden-Württemberg",49.1365626,10.072019500000001,Germany
"Fürth, Bavaria",49.477263,10.989616,Germany
"Düsseldorf, North Rhine-Westphalia",51.2254018,6.7763137,Germany
"Grafenhausen, Baden-Württemberg",47.7749844,8.2544945,Germany
"Scheyern, Bavaria",48.5020343,11.4555839,Germany
"Gunzenhausen-Oberasbach, Bavaria",49.112033399999994,10.7820767,Germany
"Mukilteo, Washington",47.9474034,-122.30369920000001,United States of America
"Roslyn, Washington",47.223960399999996,-120.99411440000002,United States of America
"Fort Bragg, California",39.453473100000004,-123.81491141575005,United States of America
"San Cristobal, Panama",8.41740565,-82.44198220088265,Panama
"Centralia, Washington",46.7204489,-122.9614303,United States of America
"Neuhaus an der Pegnitz, Bavaria",49.6280956,11.5516616,Germany
"Ukiah, California",39.1501662,-123.2077861,United States of America
"Maxwelton, West Virginia",37.866231899999995,-80.4097972,United States of America
"Rettenberg/Oberallgäu, Bavaria",47.5749325,10.292246400000002,Germany
"Ichtegem, Belgium",51.08743265,3.029462506474408,Belgium
"Romrod, Hesse",50.7145445,9.2187448,Germany
"Kempten, Bavaria",47.7267063,10.316883500000001,Germany
"Newport, Oregon",44.636755,,
"Seligenstadt, Hesse",50.0347055,8.959371899999997,Germany
"Dour-Blaugies, Belgium",50.37098255,3.8269604275003393,Belgium
"Eschwege, Hesse",51.186867,,
"Rimouski, Quebec",48.450155,-68.52996800000001,Canada
"Aurora, Colorado",39.729432,-104.8319196,United States of America
"San Gabriel, California",34.0991325,-118.1086041,United States of America
"Truth or Consequences, New Mexico",33.1283485,-107.25290590000002,United States of America
"Wimbledon, Greater London",51.4214787,-0.2064027,United Kingdom
"Elk Grove, California",38.4087993,-121.37161780000001,United States of America
"Fort Monroe, Virginia",37.00427465,,
"White Salmon, Washington",45.727619399999995,-121.4864619,United States of America
"Dallas , Texas",32.7762719,-96.7968559,United States of America
"Carlstadt , New Jersey",40.8403778,-74.09069740000002,United States of America
"Mount Airy, Maryland",39.3762145,-77.15470400000002,United States of America
"Adkins, Texas",29.393012899999995,-98.23723290000001,United States of America
"Eugene, Oregon",44.0505054,-123.09505060000001,United States of America
"Juneau, Alaska",58.30194960000001,-134.419734,United States of America
"Farmers Branch, Texas",32.9265137,-96.89611509999999,United States of America
"Dubuque, Iowa",42.5006217,-90.66479670000001,United States of America
"Cedar Rapids, Iowa",41.9758872,-91.6704053,United States of America
"Johnson City, Texas",30.277381899999995,-98.4090218,United States of America
"Centennial, Colorado",39.5680644,-104.97783081285029,United States of America
"Gulfport, Mississippi",30.367419800000004,-89.0928155,United States of America
"Santa Fe, New Mexico",35.68699960000001,-105.9377997,United States of America
"Fort Wayne, Indiana",41.0799898,-85.13860150000002,United States of America
"Sparks, Nevada",39.5404679,-119.74872350000001,United States of America
"Bamber Bridge, Lancashire",53.7291055,-2.6607002,United Kingdom
"Alcester, Warwickshire",52.2176183,-1.8684418,United Kingdom
"Patchogue, New York",40.7656539,-73.0151084,United States of America
"Dartmouth, Nova Scotia",44.67997070000001,-63.57202320000001,Canada
"Hardley, Hampshire",50.84111420000001,-1.3907108999999998,United Kingdom
"Zoeterwoude, Netherlands",52.11718945,4.503459502079346,The Netherlands
"Maidstone, Kent",51.274825799999995,0.5231646,United Kingdom
"Shanghai, China",31.232275800000004,121.4692071,China
"Mellor Brook, Lancashire",53.779556400000004,-2.5611941000000003,United Kingdom
"Calgary, Alberta",51.0534234,-114.0625892,Canada
"Gibsons, British Columbia",49.40061970000001,-123.5089186,Canada
"Willoughby, Ohio",41.6397696,-81.4065011,United States of America
"Terre Haute, Indiana",39.466702500000004,-87.4139119,United States of America
"Salem, Connecticut",41.4903761,-72.275359,United States of America
"San Antonio , Texas",29.424600199999997,-98.4951405,United States of America
"Grand Prairie, Alberta",50.768400799999995,-112.8577374,Canada
"Silver Spring, Maryland",38.9959461,-77.02762309999999,United States of America
"Winchester, Kentucky",37.990078999999994,-84.1796503,United States of America
"Penticton, British Columbia",49.494890999999996,-119.594421,Canada
"Nanaimo, British Columbia",49.163759399999996,-123.93797190000001,Canada
"New Britain, Connecticut",41.6612104,-72.77954190000001,United States of America
"Winnipeg, Manitoba",49.8955367,-97.1384584,Canada
"Whitby, Ontario",43.89987100000001,-78.940201,Canada
"Johnson City, Tennessee",36.3134398,-82.3534728,United States of America
"Yakima, Washington",46.601557,-120.51084209999999,United States of America
"Ankeny, Iowa",41.731871500000004,-93.60038370000001,United States of America
"Lincoln, California",38.8598295,-121.34239205792437,United States of America
"Val-David, Quebec",46.0282815,-74.2065632,Canada
"Repentigny, Quebec",45.7326055,-73.4528307,Canada
"Lachute, Quebec",45.656047799999996,-74.34013879999998,Canada
"Bocholt, Belgium",51.1924818,5.599558194626788,Belgium
"Washougal, Washington",45.581959399999995,-122.34799209999998,United States of America
"Sunnyside, Washington",46.324641899999996,-120.00818980000001,United States of America
"Perryville, Missouri",37.72751270000001,-89.86454549999998,United States of America
"Oceanside, New York",40.6335915,-73.63765271803683,United States of America
"Kenora, Ontario",49.766215,-94.48935279999999,Canada
"Atlanta, Georgia",33.749098700000005,-84.39018490000002,United States of America
"Leduc, Alberta",53.260763600000004,-113.5501238,Canada
"Newton, Iowa",41.6996927,-93.0537592,United States of America
"Raleigh , North Carolina",35.7803977,-78.63909890000002,United States of America
"Delta, British Columbia",49.0846258,-123.05793840000001,Canada
"Brookshire, Texas",29.7860643,-95.95106609999999,United States of America
"Virginia Beach, Virginia",36.8529841,-75.9774183,United States of America
"Coralville , Iowa",41.6764044,-91.58044749999999,United States of America
"Ventura, California",34.4458248,-119.07793590000001,United States of America
"Milldale, Connecticut",41.565931,-72.89176850000003,United States of America
"Jarvis, Ontario",42.8844706,-80.11394140000002,Canada
"Colts Neck, New Jersey",40.287610799999996,-74.1723652,United States of America
"Edmonton, Greater London",51.620339200000004,-0.0659791,United Kingdom
"Macclesfield, Cheshire",53.2606635,-2.1255158,United Kingdom
"Much Marcle, Herefordshire",51.9927761,-2.5001759,United Kingdom
"St Agnes, Cornwall",50.312275799999995,-5.2037934,United Kingdom
"Williamsville, New York",42.9637836,-78.73772579999998,United States of America
"Craven Arms, Shropshire",52.439866200000004,-2.8351041,United Kingdom
"Poole, Dorset",50.7179472,-1.9815209999999999,United Kingdom
"Ludlow, Shropshire",52.3718705,-2.715111962303105,United Kingdom
"Tewkesbury, Gloucestershire",51.993785700000004,-2.1549574000000002,United Kingdom
"Eagle River, Alaska",61.297151799999995,-149.50871769999995,United States of America
"Kenmore, Washington",47.7573202,-122.2440148,United States of America
"Columbia, Maryland",4.6104399,-74.20380250000002,Colombia
"North Vancouver, British Columbia",49.320713299999994,-123.0737831,Canada
"Pittsburgh, Pennsylvania",40.4416941,-79.99008609999998,United States of America
"Vancouver, Washington",45.63069539999999,-122.67445570000001,United States of America
"Jackson, Wyoming",43.479965,-110.76181499999998,United States of America
"Sudbury , Suffolk",52.0401524,0.7299495,United Kingdom
"Roswell, Georgia",34.02332,-84.360022,United States of America
"Durham, Durham",35.996653,-78.90180529999998,United States of America
"Forchheim, Bavaria",49.7186937,11.059643300000001,Germany
"Staveley, Cumbria",54.37840179999999,-2.8197952,United Kingdom
"Tottori Prefecture, Japan",35.3555075,133.8678525,Japan
"Oakland, California",37.80445570000001,-122.27135630000001,United States of America
"Madison , Wisconsin",43.074760999999995,-89.3837613,United States of America
"Little Rock, Arkansas",34.7464809,-92.2895948,United States of America
"Bay Shore, New York",40.742924,-73.25731042134166,United States of America
"Fawn Grove, Pennsylvania",39.727882,-76.4519078,United States of America
"Lake Barrington, Illinois",42.212614,-88.16715437057545,United States of America
"Red Deer, Alberta",52.269838,-113.81835900000002,Canada
"Victor, Idaho",43.602698,-111.111332,United States of America
"Northport, New York",40.9040576,-73.34201693018869,United States of America
"Sterling, Virginia",39.001619399999996,-77.40320109999998,United States of America
", New York",40.7127281,-74.0060152,United States of America
"Niles, Illinois",42.028931899999996,-87.8122348,United States of America
"Peckham, Greater London",51.47341220000001,-0.0699321,United Kingdom
"York, North Yorkshire",53.95905550000001,-1.0815361000000001,United Kingdom
"Salisbury, Wiltshire",51.0796895,-1.8074237640795872,United Kingdom
"Hector, New York",42.5006271,-76.87245859999999,United States of America
"Falls Church, Virginia",38.882334,-77.17109140000002,United States of America
"Brattleboro, Vermont",42.8509152,-72.5578678,United States of America
"Malden, Massachusetts",42.4250964,-71.066163,United States of America
"Lemont, Illinois",41.673642,-88.0017261,United States of America
"Claremont, California",34.0966764,-117.71977849999999,United States of America
"Casselman, Ontario",45.313528999999996,-75.08674599999998,Canada
"Binghamton , New York",42.096968,-75.91434100000002,United States of America
"Wilmington, North Carolina",34.2257282,-77.9447107,United States of America
"Napa, California",38.2971367,-122.28552930000001,United States of America
"Wolcott, Connecticut",41.6023196,-72.9867718,United States of America
"Salem, New Hampshire",42.788422600000004,-71.20089329999998,United States of America
"Rogers, Arkansas",36.332019700000004,-94.1185366,United States of America
"Gardner City, Idaho",43.210157,-112.32434340000002,United States of America
"Rocklin, California",38.7907339,-121.2357828,United States of America
"Chincoteague, Virginia",37.9331799,-75.3788141,United States of America
"Granville, Ohio",40.06811920000001,-82.5196037,United States of America
"Delmar, New York",42.62378835,-73.83793894179314,United States of America
"Alton, Illinois",38.8908583,-90.1843091,United States of America
"Westville, New Jersey",39.8700552,-75.12651770000002,United States of America
"St. Paul, Minnesota",44.9504037,-93.10150259999999,United States of America
"Sawyer, Michigan",41.88532070000001,-86.5894666,United States of America
"Robbinsdale, Minnesota",45.0313156,-93.3395843,United States of America
"Camas, Washington",45.5911103,-122.41222479999999,United States of America
"Pickerington, Ohio",39.8962773,-82.77319049748806,United States of America
"Streatham, Greater London",51.429769,-0.1311105,United Kingdom
"Somerset West, Wisconsin",45.12441079999999,-92.6735365,United States of America
"Wallsend, Tyne & Wear",54.9911912,-1.5342042,United Kingdom
"St Jacob's, Ontario",43.532949,-80.554627,Canada
"Ledbury, Herefordshire",52.03574570000001,-2.4287821,United Kingdom
"Portsmouth, Hampshire",50.8036831,-1.0756139999999998,United Kingdom
"Stowe, Vermont",44.46537410000001,-72.6860186,United States of America
"San Jose, California",37.3361905,-121.89058329999999,United States of America
"Tacoma, Washington",47.24957979999999,-122.43987460000001,United States of America
"Oxford, Connecticut",41.4351795,-73.11727690000002,United States of America
"Savoy, Illinois",40.05475300000001,-88.2517165,United States of America
"Mashpee, Massachusetts",41.648442100000004,-70.4811383,United States of America
"Kent, Connecticut",41.724646,-73.4770859,United States of America
"Locations in Ogden and Layton, Utah",,,
"Terrebonne, Quebec",45.7081005,-73.6515157,Canada
"Lansdale, Pennsylvania",40.2414952,-75.28378620000002,United States of America
"Bozeman, Montana",45.679429299999995,-111.04404740000001,
"Everett, Massachusetts",42.408429999999996,-71.0536625,United States of America
"Perham, Minnesota",46.5944042,-95.5725415,United States of America
"Lübz, Mecklenburg-Vorpommern",53.4615326,12.029351400000001,Germany
"Henniker, New Hampshire",43.179645,-71.82243299999998,United States of America
"Tuscaloosa, Alabama",33.2095614,-87.5675258,United States of America
"Worms, Rhineland-Palatinate",49.63026179999999,8.3620898,Germany
"Pennsauken, New Jersey",39.9562238,,
"Portland , Oregon",45.5202471,-122.6741949,United States of America
"Nederland, Colorado",51.80779329999999,4.7088872,The Netherlands
"Lexington, Kentucky",38.0464066,-84.4970393,United States of America
"Camarillo, California",34.2164099,-119.03765729999999,United States of America
"Blyth, Ontario",43.73659910000001,-81.42940240000001,Canada
"Winscombe, Somerset",51.31394279999999,-2.8334616,United Kingdom
"Jonquière, Quebec",48.382012100000004,-71.147339,Canada
"Hamont-Achel, Belgium",51.2547636,5.5128695999999975,Belgium
"Greensboro Bend, Vermont",44.5489422,-72.2648257,United States of America
"Coalville, Leicestershire",52.72579810000001,-1.3741375,United Kingdom
"Williamston, Michigan",42.689151,-84.28327979999997,United States of America
"Healdsburg, California",38.6298355,-122.85900211842106,United States of America
"Milwaukee, Wisconsin",43.0349931,-87.92249699999998,United States of America
"Waitsfield, Vermont",44.192132,-72.82270759999999,
"Williston, Vermont",44.4374044,-73.0689621,United States of America
"Oakland Park, Florida",26.1801443,-80.13720059548373,United States of America
"Boonville, California",39.0091667,-123.3661111,United States of America
"Dayton, Ohio",39.758947799999994,-84.1916069,United States of America
"Bellaire, Michigan",44.980282,-85.211173,United States of America
"Alverskirchen/Everswinkel, North Rhine-Westphalia",51.912883,7.809908,Germany
"Kennesaw, Georgia",34.023433700000005,-84.6154897,United States of America
"Horsham, West Sussex",51.0630273,-0.3295028,United Kingdom
"Alpine, California",38.5893934,-119.8345013,United States of America
"Andechs, Bavaria",47.9746379,11.1828225,Germany
"Carlsbad, California",33.158093300000004,-117.3505966,United States of America
"Solana Beach, California",32.9905597,-117.2691316,United States of America
"Baker City, Oregon",44.7748748,-117.8343848,United States of America
"Louisville, Kentucky",38.254237599999996,-85.759407,United States of America
"Papillion, Nebraska",41.1544433,-96.04223780000001,United States of America
"Watervliet, Michigan",42.18670520000001,-86.26057759999998,United States of America
"Diksmuide, Belgium",51.0333408,2.8647185,Belgium
"Pennington, New Jersey",40.3284403,,
"Saignelégier, Switzerland",47.255799700000004,6.9963585,Switzerland
"Islington, Greater London",51.538428700000004,-0.09990510000000001,United Kingdom
"Albuquerque, New Mexico",35.0841034,-106.6509851,United States of America
"Olympia, Washington",47.0451022,-122.89500749999999,United States of America
"Cologne, North Rhine-Westphalia",50.938361,6.959974000000001,Germany
"Middleburg Heights, Ohio",41.3614401,-81.812912,United States of America
"Diss, Suffolk",52.3356145,0.9595305000000001,United Kingdom
"Middletown, New York",40.839722200000004,-73.8316667,United States of America
"Ilminster, Somerset",50.9267192,-2.9102756000000003,United Kingdom
"Dexter, Michigan",42.3383697,-83.8885553,United States of America
"Firle, East Sussex",50.846172700000004,0.10011691011539428,United Kingdom
"La Tuque, Quebec",47.441092,-72.78511,Canada
"McMinnville, Oregon",45.2100367,-123.19446299999998,United States of America
"Tempe, Arizona",33.4255056,-111.9400125,United States of America
"Monterey, California",36.223107899999995,-121.38774280000001,United States of America
"Kernville , California",35.733073499999996,-118.43394593561493,United States of America
"Hampton, New Hampshire",42.9304376,-70.824896,United States of America
"Bridgman, Michigan",41.943098600000006,-86.55696590000002,United States of America
"State College, Pennsylvania",40.794450399999995,-77.86163859999998,United States of America
"Boynton Beach, Florida",26.5256179,-80.0666026,United States of America
"Granby, Quebec",45.399040899999996,-72.721834,Canada
"Keighley, West Yorkshire",53.86764515,-1.9387085955617689,United Kingdom
"New Ulm, Minnesota",44.3140261,-94.4614177,United States of America
"Meadville, Pennsylvania",41.641445000000004,-80.151449,United States of America
"El Segundo, California",33.917028,-118.4156337,United States of America
"Flossmoor, Illinois",41.542812299999994,-87.6847684,United States of America
"Maroldsweisach, Bavaria",50.197294,10.6606004,Germany
"Jupiter, Florida",26.9260832,-80.12108914060956,United States of America
"Sacramento, California",38.5815719,-121.49439960000001,United States of America
"Redlands, California",34.055735,-117.1888961,United States of America
"Bad Staffelstein, Bavaria",50.1028062,11.000644099999999,
"Farmville, North Carolina",35.5954381,-77.5852496,United States of America
"Pottstown and Phoenixville, Pennsylvania",,,
"Elland, West Yorkshire",53.6858377,-1.8377141,United Kingdom
"Didsbury, Alberta",51.6607926,-114.13724750000002,Canada
"Wrington, Somerset",51.3616116,-2.7637231,United Kingdom
"Blandford Forum, Dorset",50.8652479,-2.1571168563645413,United Kingdom
"Chepstow, Gloucestershire",51.50303140000001,-2.4939218999999997,United Kingdom
"Marshall, Michigan",42.272136700000004,-84.96420079999999,United States of America
"Hauzenberg, Bavaria",48.6551971,13.6276784,Germany
"Irlbach, Bavaria",48.85168845,12.741544258715113,Germany
"Bad Tölz / Oberbayern, Bavaria",47.7610641,11.5582933,Germany
"Charleston, South Carolina",32.7876012,-79.9402728,United States of America
"Battle Creek, Michigan",42.319254799999996,-85.18242690000002,United States of America
"Saint-Basile-le-Grand, Quebec",45.526246,-73.2876515,Canada
"Ringwood, Hampshire",50.8292623,-1.7711280913147434,United Kingdom
"Sopron, Hungary",47.6803063,16.5983457,Hungary
"La Crosse, Wisconsin",43.8014053,-91.2395429,United States of America
"Glenfield, Leicestershire",52.649918400000004,,
"Surrey, British Columbia",49.1913033,-122.8491439,Canada
"Twickenham, Greater London",51.44674439999999,-0.3281887,United Kingdom
"Holborn, Greater London",51.5179341,-0.11952839999999999,United Kingdom
"Croydon, Cambridgeshire",52.127770399999996,-0.0813098,United Kingdom
"Shiner, Texas",29.429978000000002,,
"Neuzelle, Brandenburg",52.0908428,14.6493003,Germany
"Nymburk, Czech Republic",50.186331,15.041730599999998,Czech Republic
"Pisgah Forest, North Carolina",35.2542808,,
"Ingolstadt, Bavaria",48.7630165,11.4250395,Germany
"Golden, Colorado",39.755542999999996,-105.2210997,United States of America
"Mount Vernon, Washington",48.42004620000001,-122.32642,United States of America
"Lyme Regis, Dorset",50.7361334,-2.9317343744389417,United Kingdom
"Beverley, East Yorkshire",53.84326070000001,-0.4317193498925199,United Kingdom
"Milwaukee                       , Wisconsin",43.0349931,-87.92249699999998,United States of America
"Valparaiso, Chile",-33.0458456,-71.6196749,Chile
"Rüthen, North Rhine-Westphalia",51.491139200000006,8.4330329,Germany
"Homburg, Saarland",49.31816729999999,7.3340336,Germany
"Löbau, Saxony",51.09472879999999,14.6692423,Germany
"Salhouse, Norfolk",52.677074,1.4061732,United Kingdom
"Dereham, Norfolk",52.6802052,0.9386329,United Kingdom
"Fur, Denmark",56.82145525,9.001823662821717,Denmark
"Potton, Bedfordshire",52.1305155,-0.2039216156426842,United Kingdom
"Loughborough, Leicestershire",52.772385899999996,-1.2077985,United Kingdom
"St. Gallen, Switzerland",47.4250593,9.376587800000001,Switzerland
"Addison, Texas",32.9604305,-96.83025951893629,United States of America
"Netanya, Israel",32.32861810000001,34.8566246,Israel
"Besthorpe, Norfolk",52.5257251,1.03649,United Kingdom
"Campbell, California",37.2870626,-121.94488179999999,United States of America
"Biržu raj., Lithuania",,,
"Thrupp, Gloucestershire",51.730862200000004,-2.2016443,United Kingdom
"Boortmeerbeek, Belgium",50.98159370000001,4.5729262,Belgium
"Prince George, British Columbia",53.91286450000001,-122.7453699,Canada
"Yerevan, Armenia",40.17761210000001,44.5125849,Armenia
"Ingolstadt , Bavaria",48.7630165,11.4250395,Germany
"Renchen, Baden-Württemberg",48.587398799999995,8.0143673,Germany
"Kerava, Finland",60.403439799999994,25.1041013,Finland
"Cockerham, Lancashire",53.9626884,-2.8176994,United Kingdom
"Caracas, Venezuela",10.506098,-66.9146017,Venezuela
"Flensburg, Schleswig-Holstein",54.78330210000001,9.4333264,Germany
"Santa Cruz, California",37.050096,-121.9905908,United States of America
"Schlüsselfeld, Bavaria",49.7569182,10.6186266,Germany
"Marion, Montana",48.1055095,,
"Waynesboro, Virginia",38.06522860000001,,
"West Seneca, New York",42.83943505,,
"Greenwich, Greater London",51.4820845,,
"Northampton, Northamptonshire",52.2381355,,
"Saarbrücken, Saarland",49.234362,6.996378999999999,Germany
"Issum, North Rhine-Westphalia",51.5347321,6.4245085,Germany
"Eye, Suffolk",52.3226292,1.1463709,United Kingdom
"Brampton, Ontario",43.6858146,-79.7599337,Canada
"Ferguson, Missouri",38.744707,-90.30389749999999,United States of America
"Holzminden, Lower Saxony",51.828835,9.4466591,Germany
"Zusmarshausen, Bavaria",48.39989600000001,10.5957313,Germany
"New Mills, Derbyshire",53.365432,-2.0012793999999996,United Kingdom
"Stralsund, Mecklenburg-Vorpommern",54.3159851,13.0904622,Germany
"Preston, Lancashire",53.7593363,-2.6992717,United Kingdom
"Penryn, Cornwall",50.1685495,-5.1034063,United Kingdom
"Casablanca, Morocco",33.59506270000001,-7.6187768,Morocco
"Gooik, Belgium",50.797973799999994,4.102984067451088,Belgium
"Frankenthal, Rhineland-Palatinate",49.5445804,8.3540061,Germany
"Bamberg-Gaustadt, Bavaria",49.9011239,10.8696356,Germany
"Skive, Denmark",56.64592439999999,8.932732160154906,Denmark
"Abita Springs, Louisiana",30.4785257,-90.0375755,United States of America
"Lohnbrauhausen, Baden-Württemberg",,,
"Coventry, West Midlands",52.4081812,-1.510477,United Kingdom
"New Orleans, Louisiana",29.949932300000004,-90.0701156,United States of America
"San Giorgio di Nogaro, Italy",45.83202360000001,13.2111453,Italy
"Waterbeach, Cambridgeshire",52.265783,0.19097879999999998,United Kingdom
"Wallerstein, Bavaria",48.8870756,10.476036,Germany
"Cambridge, Maryland",38.5714624,-76.0763177,United States of America
"Limoges, Ontario",45.3341367,-75.2519986,Canada
"New Braunfels, Texas",29.7028266,-98.1257348,United States of America
"Bonn, North Rhine-Westphalia",50.735851000000004,7.10066,Germany
"Upper Marlboro, Maryland",38.8165274,-76.7519753,United States of America
"Donaueschingen, Baden-Württemberg",47.953419399999994,8.495925699999999,Germany
"Greenfield, Massachusetts",42.60974760000001,-72.5979752,United States of America
"Managua, Nicaragua",12.145990699999999,-86.27466650000002,Nicaragua
"Laholm, Sweden",56.50514815,13.150901570202,Sweden
"Port St Lucie , Florida",27.2939333,-80.35032829999999,United States of America
"Alling, Bavaria",48.14019520000001,11.3015889,Germany
"Peine, Lower Saxony",52.3217849,10.234948900000001,Germany
"Albany, Oregon",44.6365071,-123.1059324,United States of America
"Duisburg, North Rhine-Westphalia",51.434999,6.759562,Germany
"Neenah, Wisconsin",44.1858193,-88.462609,United States of America
"Schönthal-Rhan, Bavaria",,,
"Dargun, Mecklenburg-Vorpommern",53.9,12.85,Germany
"Fairfield, California",38.2493581,-122.03996629999999,United States of America
"Missoula, Montana",46.8701049,-113.9952672,United States of America
"London, Ontario",42.9836747,-81.2496068,Canada
"Windsor, Ontario",42.317099,-83.0353434,Canada
"Wschowa, Poland",51.8038354,16.317277100000002,Poland
"Mustang, Oklahoma",35.384227,-97.7244813,United States of America
"Abingdon, Oxfordshire",51.6714842,-1.2779715,United Kingdom
"Neumarkt in der Oberpfalz, Bavaria",49.279624,11.4594662,Germany
"Offenburg, Baden-Württemberg",48.47165560000001,7.944377999999999,Germany
"Maryland Heights, Missouri",38.7150511,-90.435999,United States of America
"Erie, Colorado",40.0146297,-105.10395109684542,United States of America
"Hershey, Pennsylvania",40.2854881,-76.65060009999998,United States of America
"Alpirsbach, Baden-Württemberg",48.3456021,8.4033079,Germany
"Böblingen, Baden-Württemberg",48.684969,9.0113444,Germany
"Detroit, Michigan",42.331550899999996,-83.04664029999998,United States of America
"Eccles, Greater Manchester",53.4840887,-2.3375175,United Kingdom
"Waukesha, Wisconsin",43.0116784,-88.2314813,United States of America
"Herzele, Belgium",50.88480429999999,3.8935574,Belgium
"Coraopolis , Pennsylvania",40.5184013,-80.1667247,United States of America
"Highlands Ranch, Colorado",39.5538771,-104.9694264,United States of America
"Leamington Spa, Warwickshire",52.2913394,-1.536404,United Kingdom
"Powell River, British Columbia",49.835676,-124.5244122,Canada
"Neuhausen, Baden-Württemberg",48.7929606,8.778561400000001,Germany
"Unionville, Virginia",38.2598551,-77.96833070000002,United States of America
"Cary, North Carolina",35.78830460000001,-78.7811964,United States of America
"Buffalo, New York",42.8867166,-78.87839220000002,United States of America
"Reigate, Surrey",51.237387,-0.20594920000000005,United Kingdom
"Norris , Tennessee",36.1956343,-84.06797399999998,United States of America
"Brixton, Greater London",51.4568044,-0.11679589999999998,United Kingdom
"Great Shefford, Berkshire",51.4760456,-1.4465484,United Kingdom
"Hartlepool, Durham",54.68572760000001,-1.2093696000000005,United Kingdom
"Lafayette, Colorado",40.0024435,-105.10957997730036,United States of America
"Monroe, Wisconsin",42.6018298,-89.6392396,United States of America
"Orleans , Ontario",45.481032299999995,-75.5100002,Canada
"Greiz, Thuringia",50.7783814,12.076353300000001,Germany
"Laramie, Wyoming",41.311367,-105.591101,United States of America
"Ham, Gloucestershire",51.682502299999996,-2.4650342,United Kingdom
"Park City, Utah",40.646063500000004,-111.4979741,United States of America
"Rochester, New York",43.157284999999995,-77.615214,United States of America
"Butler, Pennsylvania",40.8610205,-79.89522509999998,United States of America
"Mifflinburg, Pennsylvania",40.917582,-77.04775009999999,United States of America
"Washington DC, Washington DC",38.8949855,-77.03657079999998,United States of America
"Saanich, British Columbia",48.4594315,-123.3764946,Canada
"Thomas, West Virginia",39.1491974,-79.49797209999998,United States of America
"Burnaby, British Columbia",49.2433804,-122.9725459,Canada
"Zwickau, Saxony",,12.4939267,
"Rudgwick, West Sussex",51.09002720000001,-0.4491403000000001,United Kingdom
"Stellenbosch, South Africa",-33.934444,18.869167,South Africa
"Nennslingen, Bavaria",49.0477208,11.131561300000001,Germany
"Framfield, East Sussex",50.964318799999994,0.1322,United Kingdom
"Pilsting-Großköllnbach, Bavaria",48.6813342,12.6060611,Germany
"Walden, New York",41.56120479999999,-74.18848059999998,United States of America
"Hannover, Lower Saxony",52.374477899999995,9.738553199999998,Germany
"Flemington, New Jersey",40.50798155,-74.86064661501618,United States of America
"Madison, North Carolina",35.848203399999996,-82.6931063,United States of America
"Kreuzberg, Berlin",52.4976443,13.411914000000001,Germany
"Omaha, Nebraska",41.258745899999994,-95.93837579999999,United States of America
"Monument, Colorado",39.06775465,-104.86175880732664,United States of America
"Sturgeon Bay, Wisconsin",44.8341639,-87.377042,United States of America
"Ruckersville, Virginia",38.2331873,-78.369175,United States of America
"Gotha, Thuringia",50.9462725,10.6945265,Germany
"Port Alberni, British Columbia",49.2343668,-124.8056517,Canada
"Bellingham, Washington",48.754401200000004,-122.47883610000001,United States of America
"Windsor, California",38.54713270000001,-122.81638020000001,United States of America
"Herne Hill, Greater London",51.4534691,-0.1022835,United Kingdom
"Deal, Kent",51.223923799999994,1.4028653,United Kingdom
"Jever, Lower Saxony",53.5736426,7.9020696,Germany
"New Wilmington, Pennsylvania",41.1222812,-80.3328428,United States of America
"Hohenfinow, Brandenburg",52.8115296,13.924022899999999,Germany
"Sierre, Switzerland",46.29225220000001,7.5323195000000025,Switzerland
"Delray Beach, Florida",26.4614625,-80.07282009999999,United States of America
"Chemnitz, Saxony",50.83226079999999,12.9252977,Germany
"Leinfelden-Echterdingen, Baden-Württemberg",48.6901796,9.1525725,Germany
"Islamorada , Florida",24.9242995,-80.62784040000003,United States of America
"Bossier City, Louisiana",32.5369356,-93.6952689,United States of America
"Vaughan, Ontario",43.7941544,-79.52680229999999,Canada
"Ardwick, Greater Manchester",53.4676745,-2.2160104,United Kingdom
"Essingen, Baden-Württemberg",48.81096270000001,10.0287876,Germany
"Banjul, Gambia",13.44134645,-16.562471332101786,The Gambia
"Sebastopol, California",38.3845125,-122.83325015837441,United States of America
"Droxford, Hampshire",50.95555255,-1.147026899597302,United Kingdom
"Doral, Florida",25.818472500000002,-80.35396791309786,United States of America
"Priors Frome, Herefordshire",52.0483385,-2.6192914000000003,United Kingdom
"Vieux Fort, St Lucia",13.77296925,,
"Monrovia, California",,-118.0014517,
"Sarajevo, Bosnia and Herzegovina",43.851977399999996,18.386686800000003,Bosnia and Herzegovina
"Tottenham, Greater London",51.5976955,-0.0672892,United Kingdom
"Fernandina Beach, Florida",30.66968180000001,-81.4625919,United States of America
"Pittsburgh                      , Pennsylvania",40.4416941,-79.99008609999998,United States of America
"Windsor, Berkshire",51.4814958,-0.6133183000000001,United Kingdom
"Birmingham, Hall Green, West Midlands",,,
"Malton, North Yorkshire",54.1349419,-0.7965915,United Kingdom
"Pacific City, Oregon",,-123.96351489999999,
"Marietta, Georgia",,-84.54961479999999,
"Mriehel, Malta",35.89020834999999,14.466630033801625,Malta
"Clarksville, Tennessee",36.5277607,-87.35887029999998,United States of America
"Herrngiersdorf, Bavaria",48.7895773,12.0676918,Germany
"Holmfirth, West Yorkshire",53.570351699999996,-1.7870301,United Kingdom
"Trento, Italy",46.0664228,11.125760099999999,Italy
"Pulborough, West Sussex",50.9575636,-0.5097654,United Kingdom
"Ross On Wye, Herefordshire",51.9140804,-2.5838357000000003,United Kingdom
"Steinsfeld-Reichelshofen, Bavaria",,,
"Saint-Germain-de-Kamouraska, Quebec",47.589031,-69.798203,Canada
"Saanichton, British Columbia",48.5972157,-123.41821509117777,Canada
"Bernkastel-Kues, Rhineland-Palatinate",49.9157398,7.070818099999999,Germany
"Aldwych, Greater London",51.513103,-0.1149205,United Kingdom
"Wernigerode, Saxony-Anhalt",51.834417200000004,10.7862526,Germany
"Buellton, California",34.6134727,-120.1936692,United States of America
"St. John     , New Brunswick",45.278752000000004,-66.058044,Canada
"Ealing, Greater London",51.5126553,-0.3051952,United Kingdom
"Birkenhead, Merseyside",53.3943509,-3.0191569,United Kingdom
"Lewes, East Sussex",50.8746139,0.005115324110936268,United Kingdom
"Ellicott City, Maryland",39.2673284,-76.7983067,United States of America
"Augsburg, Bavaria",48.3668041,10.8986971,Germany
"La Vista, Nebraska",41.1832679,-96.0324044,United States of America
"Brindley Ford, Staffordshire",,,
"Paderborn, North Rhine-Westphalia",51.71895955,,
"Kaunas, Lithuania",54.898213899999995,,
"Bodenwöhr, Bavaria",49.2704938,12.3043167,Germany
"Mariembourg, Belgium",50.0941307,4.5233186,Belgium
"Banmai, Mueang, Pathum Thani Province, Thailand",,,
"Tallahassee, Florida",30.4380832,-84.2809332,United States of America
"Koprivnica, Croatia",46.162944,16.8319162,Croatia
"Peterborough, Cambridgeshire",52.572576899999994,-0.24273360000000002,United Kingdom
"Burton-on-Trent, Staffordshire",52.802742,-1.629917,United Kingdom
"Rock, Cornwall",50.5446768,-4.9118108,United Kingdom
"Axminster, Devon",50.7820966,-2.9979915,United Kingdom
"Heidesheim am Rhein, Rhineland-Palatinate",50.0016706,8.121054329694335,Germany
"Wichita, Kansas",37.6922361,-97.3375448,United States of America
"Murau, Austria",47.11958265,14.225504559328828,Austria
"Franklin, West Virginia",38.642894500000004,-79.3311531,United States of America
"Providence, Rhode Island",41.8239891,-71.4128343,United States of America
"Sai Yai, Sai Noi amp., Nonthaburi prov., Thailand",,,
"Woodinville, Washington",47.75458270000001,-122.1588902,United States of America
"Lindley, West Yorkshire",53.6622559,-1.8236688,United Kingdom
"Halle/Saale, Saxony-Anhalt",51.4825041,11.970545199999998,Germany
"Villach, Austria",46.6167284,13.850026800000002,Austria
"Berlin-Wedding, Berlin",52.54278660000001,13.366999599999998,Germany
"Maracaibo , Venezuela",10.6499149,-71.6396282,Venezuela
"San Leandro, California",37.7249296,-122.1560768,United States of America
"Eggolsheim-Weigelshofen, Bavaria",,,
"Itzgrund-Kaltenbrunn, Bavaria",50.1240708,10.877682,Germany
"Riedenburg/Altmühltal, Bavaria",,,
"Ulm, Baden-Württemberg",48.397400299999994,9.9934336,Germany
"Somerdale, New Jersey",39.8440027,-75.0226691,United States of America
"Basseterre, St Kitts",17.2960919,-62.722301,Saint Kitts and Nevis
"Much Hadham, Hertfordshire",51.8553921,0.0731413,United Kingdom
"Nassau, Bahamas",25.078345600000002,-77.33833309999999,Bahamas
"Remscheid, North Rhine-Westphalia",51.1798706,7.194354400000001,Germany
"Devizes, Wiltshire",51.3525027,-1.9958301999999999,United Kingdom
"Creekside RPO Airdrie, Alberta",,,
"Vinh Phu, Thuan An, Binh Duong Province, Vietnam",,,
"Saint-Gédéon, Quebec",48.4934638,-71.7757803,Canada
"Inkofen, Bavaria",48.8394251,12.2486811,Germany
"Papeete, Tahiti, French Polynesia",,,
"Milton Keynes , Buckinghamshire",52.042979700000004,-0.7589607,United Kingdom
"Lauf-Neunhof, Bavaria",49.55513970000001,,
"Ebensfeld, Bavaria",50.0661561,10.958556100000001,Germany
"Wigan, Greater Manchester",53.545718799999996,-2.6264624,United Kingdom
"Hamburg, New York",42.716293,-78.828717,United States of America
"Milton Keynes, Buckinghamshire",52.042979700000004,-0.7589607,United Kingdom
"Timmendorfer Strand, Schleswig-Holstein",53.9981853,10.7799016,Germany
"Newton Aycliffe, Durham",54.6218534,-1.5663624,United Kingdom
"Rockwall, Texas",32.8923464,-96.4066987,United States of America
", Ontario",50.000678,-86.000977,Canada
"Saskatoon, Saskatchewan",52.131802,-106.66076699999999,Canada
"Stevens Point, Wisconsin",44.5229223,-89.574111,United States of America
"Ludwigslust, Mecklenburg-Vorpommern",53.330022899999996,11.4993644,Germany
"Honeoye Falls, New York",42.952285499999995,-77.59027590000002,United States of America
"Mora, Sweden",61.0082091,14.543133300000001,Sweden
"High Point, North Carolina",35.9556924,-80.0053176,United States of America
"Hanover, Pennsylvania",39.80632470000001,-76.9842735,United States of America
"Heidenheim, Baden-Württemberg",48.6767637,10.152923,Germany
"Frontenhausen, Bavaria",48.54620560000001,12.525329800000002,Germany
"Priesendorf, Bavaria",49.9082567,10.7110545,Germany
"Hof, Bavaria",50.3219015,11.917880699999998,Germany
"Korschenbroich, North Rhine-Westphalia",51.1902651,6.5143539000000015,Germany
"Sion, Switzerland",46.23021515,7.3637051847832025,Switzerland
"Missen, Bavaria",47.597119299999996,10.1256424,Germany
"Sandown, Isle Of Wight",50.66133060000001,-1.150346505454647,United Kingdom
"Cham-Loifling, Bavaria",,,
"Kensington, Greater London",51.4989948,-0.1991229,United Kingdom
"Leipzig, Saxony",51.3406321,12.3747329,Germany
"Pedavena (BL), Italy",46.03962420000001,11.880432699999998,Italy
"Miltenberg, Bavaria",49.701758399999996,9.255971800000001,Germany
"Long Melford, Suffolk",52.071560299999994,0.7153823,United Kingdom
"Heimenkirch , Bavaria",47.6283377,9.9102676,Germany
"Silly, Belgium",50.6484543,3.9235921,Belgium
"Exeter, New Hampshire",42.98147700000001,-70.9478343,United States of America
"Broadstairs, Kent",51.3586758,1.4407855,United Kingdom
"Boxborough, Massachusetts",42.4934474,-71.51410440000002,United States of America
"Baysville, Ontario",45.14975620000001,-79.11513520000003,Canada
"Lagos, Nigeria",6.4550575,3.3941795,Nigeria
"Covington, Kentucky",39.083622399999996,-84.508371,United States of America
"Minden, Ontario",44.9254436,-78.72493,Canada
"Sherman, Texas",36.2452294,-101.8858689,United States of America
"Torgau, Saxony",51.55812720000001,13.0046538,Germany
"North Heath, West Sussex",50.99308795,-0.08935408264218406,United Kingdom
"Lich, Hesse",50.520168299999995,8.8165535,Germany
"Griffith, Indiana",41.534507,-87.42553050000002,United States of America
"Norton Madeville, Essex",,,
"Giza, Egypt",30.0170039,31.213450800000004,Egypt
"Maple Ridge, British Columbia",49.219734499999994,-122.5997078,Canada
"Nesselwang, Bavaria",47.621888500000004,10.5003482,Germany
"Waldhaus, Baden-Württemberg",49.4832123,9.6144956,Germany
"Youngstown , Ohio",41.1035786,-80.6520161,United States of America
"Poncha Springs, Colorado",38.51277520000001,-106.07723840000001,United States of America
"Hook Norton, Oxfordshire",51.9939848,-1.4822643999999998,United Kingdom
"Gessertshausen, Bavaria",48.329698,10.7309645,Germany
"Hackney Wick, Greater London",51.543433,-0.024083900000000002,United Kingdom
"Leigh on Sea , Essex",51.5576986,0.6574595,United Kingdom
"Konstanz, Baden-Württemberg",47.659216,9.175071800000001,Germany
"Langley, British Columbia",49.10647185000001,-122.55013115681473,Canada
"Idaho Springs, Colorado",39.71619174999999,-105.57441210321262,United States of America
"Neuler, Baden-Württemberg",48.9278463,10.0688239,Germany
"Freistadt, Austria",48.5112961,14.504756599999999,Austria
"Evans City, Pennsylvania",40.769232099999996,-80.062838,United States of America
"Oviedo, Florida",28.65939250000001,-81.20469046496676,United States of America
"Furth im Wald, Bavaria",49.308165,12.8452877,Germany
"Redmond, Oregon",44.2726203,-121.17392120000001,United States of America
"Shelburne, Vermont",44.3783486,-73.2276183,United States of America
"Westbank, British Columbia",49.8309376,-119.62888999999998,Canada
"Greenville, North Carolina",35.612660999999996,-77.3663538,United States of America
"Calgary , Alberta",51.0534234,-114.0625892,Canada
"Great Staughton, Cambridgeshire",52.2685602,-0.3444957,United Kingdom
"Guayaquil, Ecuador",-2.1899066,-79.887726,Ecuador
"Wacken, Schleswig-Holstein",54.0216836,9.376705000000001,Germany
"Tatamagouche, Nova Scotia",45.710935299999996,-63.2879017,Canada
"Berg, Bavaria",48.9467562,11.4038717,Germany
"Lemesos, Cyprus",34.6852901,33.0332657,Cyprus
"Bridgewater Corners, Vermont",43.5884026,-72.6559308,United States of America
"Haltern am See, North Rhine-Westphalia",51.7430516,7.187221000000001,Germany
"Reichenau, Baden-Württemberg",47.69563725,9.059202239614569,Germany
"Brenham, Texas",30.166882799999996,-96.3977442,United States of America
"Niederwallmenach, Rhineland-Palatinate",50.16450310000001,7.811772200000001,Germany
"Wake Forest, North Carolina",35.9803138,-78.5103731,United States of America
"Kernersville, North Carolina",36.1198589,-80.07365329999998,United States of America
"Niagara On The Lake, Ontario",,-79.07232640000002,
"Köln, North Rhine-Westphalia",50.938361,6.959974000000001,Germany
"Ludwigshafen-Oggersheim, Rhineland-Palatinate",49.48815555,8.372524353895159,Germany
"Wichita Falls, Texas",33.91370850000001,-98.49338730000001,United States of America
"Potosi, Wisconsin",42.6895651,-90.7122426,United States of America
"Akureyri, Iceland",65.63584850000001,-18.212309034723816,Iceland
"Columbus, Georgia",32.4609764,-84.9877094,United States of America
"Redwood City, California",37.4863239,-122.2325233,United States of America
"Tongham, Surrey",51.234842,-0.7312608,United Kingdom
"Williams, Arizona",35.25033939999999,-112.1869481,United States of America
"Grande Prairie, Alberta",55.17108,-118.79498729999999,Canada
"Folsom, California",38.6779591,-121.17605829999998,United States of America
"Chipping Campden, Gloucestershire",52.0496652,-1.7813927,United Kingdom
"Bourton-on-the-Water , Gloucestershire",51.884072499999995,-1.7573118000000003,United Kingdom
"Ehingen, Baden-Württemberg",48.2828519,9.7262175,Germany
"Rožňava, Slovakia",48.6936373,20.571124211008406,Slovakia
"Clackamas, Oregon",45.41038870000001,-122.56606629999999,United States of America
"Salem, Oregon",44.9391565,-123.033121,United States of America
"Nunhead, Greater London",51.4615309,-0.05350560000000002,United Kingdom
"Witten-Heven, North Rhine-Westphalia",51.4403909,7.3085535,Germany
"Lake Leelanau, Michigan",44.980832,-85.715085,United States of America
"Swindon, Wiltshire",51.5613683,-1.7856853,United Kingdom
"Tbilisi, Georgia",41.6934591,44.8014495,Georgia
"Neustadt, Schleswig-Holstein",54.102989799999996,10.818673800000001,Germany
"Dorchester, Dorset",50.711677200000004,-2.4422170980612727,United Kingdom
"Wilkes-Barre, Pennsylvania",41.2464824,-75.8817316,United States of America
"Bonnerdale, Arkansas",34.384816,-93.38185209999999,United States of America
", Venezuela",8.0018709,-66.1109318,Venezuela
"Berlin, Pennsylvania",39.9206363,-78.9578022,United States of America
"Kassel, Hesse",51.3154546,9.492409599999998,Germany
"Koblenz, Rhineland-Palatinate",50.3533278,7.5943951,Germany
"Constanta, Romania",44.1767161,28.6507598,Romania
"Bubenreuth, Bavaria",49.627700299999994,11.0143385,Germany
"Winchester, Hampshire",51.0612766,-1.3131692,United Kingdom
"Frankfurt an der Oder, Brandenburg",,,
-1.7,48.780313299999996,10.0397257,Germany
-1.9,49.0241685,9.028336999999999,Germany
+1.6,48.7181821,9.989251300000001,Germany
-2.5,50.814444,14.361804999999999,Czech Republic
-1.6,48.7181821,9.989251300000001,Germany
+1.8,48.7809811,10.0370255,Germany
+2.4,,9.9912375,
-1.5,52.58367979999999,13.276598499999999,Germany
-2,-23.6041314,-69.0842783,Chile
-2.3,51.25430275,7.1487206323003925,Germany
+2.1,33.8144883,130.8904622,Japan
+2.5,50.814444,14.361804999999999,Czech Republic
-2.1,33.8144883,130.8904622,Japan
-2.6,48.7334019,9.9731123,Germany
-1.8,48.7809811,10.0370255,Germany
-2.4,48.8005105,9.9912375,Germany
+1.5,52.58367979999999,13.276598499999999,Germany
+3.4,48.8036124,9.719431599999998,Germany
+3.8,48.7421776,9.914622099999999,Germany
-2.7,48.5845713,9.2614049,Germany
-1.4,48.7803566,10.056559,Germany
+1.7,48.780313299999996,10.0397257,Germany
-2.2,48.7932811,9.967117,Germany
+2,-23.6041314,,
+1.9,49.0241685,9.028336999999999,Germany
+2.3,51.25430275,7.1487206323003925,Germany
+2.2,48.7932811,9.967117,Germany
+3.3,48.768121,10.0143983,Germany
+3,33.8333136,-4.8556382000000005,Morocco
-2.9,54.680930000000004,9.993310000000001,Germany
-2.8,54.379169999999995,10.98219,Germany
+3.1,35.53896070000001,139.5363687,Japan
+1.3,51.507686299999996,-0.1266808,United Kingdom
+2.6,48.7334019,9.9731123,Germany
+3.9,48.742840799999996,9.9107448,Germany
+1.1,54.37740329999999,13.1184383,Germany
+3.5,54.47508000000001,9.85436,Germany
-3,33.8333136,-4.8556382000000005,Morocco
+2.9,54.680930000000004,9.993310000000001,Germany
+4.7,50.802944000000004,14.317388000000001,Czech Republic
+3.6,48.7404262,9.9244701,Germany
-1.3,51.507686299999996,-0.1266808,United Kingdom
-3.1,35.53896070000001,139.5363687,Japan
+2.8,54.379169999999995,10.98219,Germany
+3.2,35.6601647,139.4932385,Japan
+3.7,48.7413979,9.9203204,Germany
+1.4,48.7803566,10.056559,Germany
+1.2,48.960138,2.3672727488694,France
+2.7,48.5845713,9.2614049,Germany
-3.2,35.6601647,139.4932385,Japan
-3.4,48.8036124,9.719431599999998,Germany
-3.9,48.742840799999996,9.9107448,Germany
-3.3,48.768121,10.0143983,Germany
-3.7,48.7413979,9.9203204,Germany
"Westerham, Kent",51.25681715,0.07303181295111258,United Kingdom
"Eppingen, Baden-Württemberg",49.1373277,8.9084374,Germany
"Plumpton Green, East Sussex",50.9352224,-0.060611800000000014,United Kingdom
"Deinze-Gottem, Belgium",50.9491288,3.4462519,Belgium
"Kailua Kona, Hawaii",19.641941,-155.996933,United States of America
"Bad Schussenried, Baden-Württemberg",48.0047363,9.656109800000001,Germany
"Brill, Buckinghamshire",51.818824799999994,-1.0494807,United Kingdom
"Wiveliscombe, Somerset",51.042145,-3.3100475,United Kingdom
"Mammoth Lakes, California",37.6432525,-118.96685090000001,United States of America
"Nashville, Tennessee",36.1622296,-86.7743531,United States of America
"Pawtucket, Rhode Island",41.878710999999996,-71.38255579999998,United States of America
"Leeds, North Yorkshire",53.797418500000006,-1.5437941000000002,United Kingdom
"Elizabeth City, North Carolina",36.295683600000004,-76.22476970000002,United States of America
"Shawinigan, Quebec",46.5389609,-72.7467621,Canada
"New Paltz, New York",41.7464972,-74.08448940000002,United States of America
"Winthrop, Washington",48.4779232,-120.1861956,United States of America
"Fairhope, Alabama",30.507956,-87.89742922432941,United States of America
"Roseland, Virginia",37.747640600000004,-78.97585790000002,United States of America
"Wentzville, Missouri",38.8244136,-90.86831190000001,United States of America
"East Hampton, Connecticut",41.5744405,-72.49192364130434,United States of America
"Spandau, Berlin",52.5192672,13.195439000000002,Germany
"Bethlehem, Pennsylvania",40.6178915,-75.3786521,United States of America
"Lincoln, Nebraska",40.8088861,-96.70777509999999,United States of America
"Memmelsdorf-Merkendorf, Bavaria",,,
"Goochland, Virginia",37.7204342,-77.8837984,United States of America
"Maple Grove, Minnesota",45.098498299999996,-93.44192220000001,United States of America
"Frankfurt am Main, Hesse",50.1106444,8.682091699999999,Germany
"Glendale, Wisconsin",43.1352881,-87.9356423,United States of America
"Plattsburgh, New York",44.69282000000001,-73.45562,United States of America
"Coon Rapids, Minnesota",45.172892299999994,-93.30238979999999,United States of America
"El Segundo , California",33.917028,-118.4156337,United States of America
"Lloydminster, Alberta",53.27999499999999,-110.00885,Canada
"Duluth, Minnesota",,-92.1251218,
"Ottawa , Ontario",45.421106,-75.690308,Canada
"Eisenberg-Speiden, Bavaria",,,
"Bremerton, Washington",,-122.62468359999998,
"Montreal, Quebec",45.4972159,-73.61036419999998,Canada
"Harrisonburg, Virginia",38.4493315,-78.8688833,United States of America
"Fortuna, California",40.597407000000004,-124.156034,United States of America
"Athens, Georgia",33.9597677,-83.376398,United States of America
"Rock Hill, South Carolina",34.9248667,-81.02507840000001,United States of America
"Douglas, Michigan",42.6433584,-86.2005933,United States of America
"Columbus, Indiana",39.201440500000004,-85.9213796,United States of America
"Ava, Illinois",37.8883846,-89.49481690000002,United States of America
"Blaine, Minnesota",45.1607987,-93.2349489,United States of America
"Revelstoke, British Columbia",50.998045,-118.1956709,Canada
"Woburn, Massachusetts",42.479261799999996,-71.1522766,United States of America
"Hesperia, California",34.4263886,-117.3008784,United States of America
"Altenkunstadt, Bavaria",,11.2433755,
"Loveland, Colorado",40.385549,-105.04436132094955,United States of America
"Greensboro, North Carolina",36.0726355,-79.79197540000001,United States of America
"Sunriver, Oregon",43.8839966,-121.4385168,United States of America
"Conroe, Texas",30.311876899999998,-95.4560512,United States of America
"Sarasota, Florida",27.3364347,-82.5306527,United States of America
"Melton Mowbray , Leicestershire",52.7649964,-0.8875870000000001,United Kingdom
"Tarboro, North Carolina",35.89682360000001,-77.53580490000002,United States of America
"Ironwood, Michigan",46.4555673,-90.16843709999999,United States of America
"Punta Arenas, Chile",-53.162664,-70.9080552,Chile
"Fridley, Minnesota",45.0838291,-93.25903879999998,United States of America
"Hickory, North Carolina",35.7333312,,
"Minnetonka, Minnesota",44.9127229,-93.499059,United States of America
"Walnut Creek, California",37.9020731,-122.0618702,United States of America
"Ann Arbor, Michigan",42.268156899999994,-83.7312291,United States of America
"Saxapahaw, North Carolina",35.947868,-79.32073627099352,United States of America
"Waltham, Massachusetts",42.3756401,-71.2358004,United States of America
"Elephant & Castle, Greater London",51.494888399999994,-0.10057310000000001,United Kingdom
"Annandale, Minnesota",45.2627428,-94.12442709999999,United States of America
"Amsterdam, Netherlands",52.3727598,4.8936041,The Netherlands
"Springfield, Oregon",44.0462362,-123.02202890000001,United States of America
"Saco, Maine",43.5009176,-70.4428286,United States of America
"Newcastle, Maine",44.035283,-69.537277,United States of America
"Valrico, Florida",27.9484265,-82.23621545220522,United States of America
"Clayton, North Carolina",35.650711,-78.45639140000002,United States of America
"Roxboro, North Carolina",36.3937519,-78.9827881,United States of America
"Stolberg, North Rhine-Westphalia",50.7702908,6.2295504,Germany
"Easthampton, Massachusetts",42.268927399999995,-72.66880359999998,United States of America
"Garland, Texas",32.912624,-96.6388833,United States of America
"Sunderland, Tyne & Wear",54.9058512,-1.3828726999999998,United Kingdom
"Daytona Beach, Florida",29.2108147,-81.02283309999999,United States of America
"Muskegon, Michigan",43.234181299999996,-86.2483921,United States of America
"Vicksburg, Mississippi",32.3528418,-90.8777342,United States of America
"Huntersville, North Carolina",35.410845,-80.84290940000002,United States of America
"Naples, Florida",26.14219760000001,-81.7942944,United States of America
"Northampton, Massachusetts",42.323344,-72.6718895,United States of America
"Winston-Salem, North Carolina",36.0998131,-80.2440518,United States of America
"Wells, Maine",43.322181,-70.580978,United States of America
"Decatur, Georgia",30.873661300000002,-84.5740953,United States of America
"Atlantic Highlands, New Jersey",40.4078865,-74.034306,United States of America
"Waakirchen, Bavaria",47.7725619,11.672804199999998,Germany
"MIlwaukee, Wisconsin",43.0349931,-87.92249699999998,United States of America
"Telluride, Colorado",37.9374939,-107.81228519999999,United States of America
"Manhattan, Kansas",39.1836082,-96.5716694,United States of America
"Hallstadt-Dörfleins, Bavaria",49.9316104,10.8584152,Germany
"Lake Mills, Wisconsin",43.0798032,-88.9125723,United States of America
"South Natick, Massachusetts",42.2737081,-71.3161688,United States of America
"Black Mountain, North Carolina",35.6178951,-82.3212302,United States of America
"Cambridge, Massachusetts",42.3750997,-71.1056157,United States of America
"Atlantic Beach, North Carolina",34.6990505,-76.7402108,United States of America
"Wisbech, Cambridgeshire",52.6651733,0.16068239999999998,United Kingdom
"Douglassville, Pennsylvania",40.2578714,-75.72630079999998,United States of America
"Vernante, Italy",44.245027,7.533834,Italy
"Waconia, Minnesota",44.850795700000006,-93.78690879999999,United States of America
"San Pedro, California",33.7358518,-118.2922934,United States of America
"Giey-sur-Aujon, France",47.905879799999994,5.0700133,France
"Gary, Indiana",41.6021292,-87.3371372,United States of America
"Midvale, Utah",40.611058899999996,-111.8999353,United States of America
"Wellingborough, Northamptonshire",52.30189,-0.6937309,United Kingdom
"Dripping Springs, Texas",30.190206699999997,-98.0866781,United States of America
"Reno, Nevada",39.5261206,-119.81265810000001,United States of America
"Phoenix, Arizona",33.448436699999995,-112.07414170000001,United States of America
"Geiselhoering, Bavaria",48.82585,12.3935461,Germany
"Foresters Falls, Ontario",45.6806698,,
"Newport, Vermont",44.936127,,
"Stadtsteinach, Bavaria",50.1613344,11.5054549,Germany
"Elmsford, New York",41.055096899999995,-73.8201338,United States of America
"Spooner, Wisconsin",45.82284110000001,-91.8908593,United States of America
"New Brighton, Minnesota",45.0628999,-93.2060969,United States of America
"Bainbridge Island, Washington",47.6262725,-122.5209287,United States of America
"Blanco, Texas",30.241927399999998,-98.4004594,United States of America
"Shelburne, Nova Scotia",43.7639539,-65.321384,Canada
"Mogadore, Ohio",41.050775,-81.393946,United States of America
"Pastetten, Bavaria",48.1991807,11.9434246,Germany
"Congleton, Cheshire",53.1631463,-2.2110691000000005,United Kingdom
"Chattanooga, Tennessee",35.0457219,-85.3094883,United States of America
"Birmingham, Michigan",42.5467012,-83.2113192,United States of America
"Niagara Falls, Ontario",43.100983,-79.11529499999997,Canada
"Bad Füssing, Bavaria",48.3506733,13.309544099999998,Germany
"Willowbrook, Illinois",41.7697533,-87.9358931,United States of America
"Ambleside, Cumbria",54.43195400000001,-2.9630528,United Kingdom
"Augusta, Maine",44.310583,-69.779663,United States of America
"Katy, Texas",29.7857853,-95.82439559999999,United States of America
"Redding, California",40.5863563,-122.3916754,United States of America
", Quebec",52.4760892,-71.8258668,Canada
"Savannah , Georgia",32.0809263,-81.09117679999999,United States of America
"Bedford, Texas",32.844017,-97.1430671,United States of America
"Lancaster, Ohio",39.71367539999999,-82.59932940000002,United States of America
"Dallastown, Pennsylvania",39.9001109,-76.6402763,United States of America
"Fall River, Massachusetts",41.70106420000001,-71.15463670000003,United States of America
"Rougemont, Quebec",45.447365999999995,-73.06354499999998,Canada
"Bad Laasphe, North Rhine-Westphalia",50.9271541,8.4123648,Germany
"Broadway, Worcestershire",52.035382500000004,-1.8618609,United Kingdom
"Tofino, British Columbia",49.1529643,-125.90470829999998,Canada
"Kreuztal-Krombach, North Rhine-Westphalia",50.99603980000001,7.953999974339768,Germany
"Maxlrain, Bavaria",47.8994924,11.987852,Germany
"Titting, Bavaria",48.996666,11.2106102,Germany
"Stoke-on-Trent, Staffordshire",53.02596595,-2.194252919036903,United Kingdom
"Nelson, British Columbia",49.494890999999996,-117.290039,Canada
"Concord, New Hampshire",43.207178000000006,-71.537476,United States of America
"Amana, Iowa",41.8000071,-91.8707335,United States of America
"Cedar Falls, Iowa",42.527412299999995,-92.4453179,United States of America
"Des Moines, Iowa",41.5910641,-93.60371490000001,United States of America
"Fredericksburg, Texas",30.2752011,-98.8719843,United States of America
"Durango, Colorado",37.2713951,-107.8815978,United States of America
"Lubbock, Texas",33.563520600000004,-101.879336,United States of America
"Littleton, New Hampshire",44.306653000000004,,
"Dulles, Virginia",38.95226625,-77.45342297783296,United States of America
"Appleton, Wisconsin",44.26113370000001,-88.40676040000002,United States of America
"Radebeul, Saxony",51.099976500000004,13.6767995,Germany
"München, Bavaria",48.1371079,11.575382199999998,Germany
"Cascade Locks, Oregon",45.669513,-121.89040200000001,United States of America
"Prior Lake, Minnesota",44.7133271,-93.4226873,United States of America
"Lakeville, Minnesota",44.650051,-93.2432791,United States of America
"Stamford, Connecticut",41.0534302,,
"Cookshire-Eaton, Quebec",45.4124593,-71.6293885,Canada
"Orono, Maine",44.883607,,
"Västerås, Sweden",59.61109920000001,16.5463679,Sweden
"Riverview , New Brunswick",46.056531299999996,-64.8010731,Canada
"Pakenham, Ontario",45.3330674,-76.2903013,Canada
"Bathurst, New Brunswick",47.626529,,
"Niagara-on-the-Lake, Ontario",43.2556116,-79.07232640000002,Canada
"Hitchin, Hertfordshire",51.9464129,-0.2791646,United Kingdom
"Stratford, Ontario",43.370089899999996,-80.9818016,Canada
"Nackawic, New Brunswick",45.99145120000001,-67.2410679,Canada
"Adelsdorf-Neuhaus, Bavaria",,,
"Tilford, Surrey",51.1871516,-0.7547390608198917,United Kingdom
"Ulvik, Norway",60.56769499999999,6.9163916,Norway
"Almonte, Ontario",45.226048999999996,-76.1945277,Canada
"Wincle, Cheshire",53.1865914,-2.0624971999999997,United Kingdom
"Lancaster, Lancashire",54.048406799999995,-2.7990345000000003,United Kingdom
"Largo, Florida",27.909466499999997,-82.7873244,United States of America
"Schaumburg, Illinois",42.0333608,-88.08340600000002,United States of America
"Leadville, Colorado",39.250822899999996,-106.29252379999998,United States of America
"Michigan City, Indiana",41.707539399999995,-86.89502970000002,United States of America
"Snoqualmie, Washington",47.5289527,-121.82709320000001,United States of America
"Vielank, Mecklenburg-Vorpommern",53.2355012,11.135182400000001,Germany
"Baileys Harbor, Wisconsin",45.064993,-87.124274,United States of America
"Broomfield, Colorado",39.92038270000001,-105.06914640000002,United States of America
"Homerton, Greater London",51.5470789,-0.043121,United Kingdom
"Berwyn, Pennsylvania",40.044830600000004,-75.4388053,United States of America
"Dischingen, Baden-Württemberg",48.6986742,10.357023300000002,Germany
"Alexandria, Virginia",38.8051095,-77.0470229,United States of America
"Ord, Nebraska",41.6033429,-98.9261987,United States of America
"Ohiowa, Nebraska",40.414436,-97.453,United States of America
"Saint-Bruno-de-Montarville, Quebec",45.5256161,-73.3391798,Canada
"Syracuse, New York",43.0481221,-76.1474244,United States of America
"Parkdale, Oregon",45.513823,-121.59215089799179,United States of America
"Nampa, Idaho",43.57373610000001,-116.5596313,United States of America
"Afton, Virginia",38.0323598,-78.839189,United States of America
"Northglenn, Colorado",40.00813,-104.95252072002545,United States of America
"McKinney, Texas",33.197649600000005,-96.6154471,United States of America
"Fernie, British Columbia",49.5041747,-115.062867,Canada
"St. Lievens-Esse/Herzele, Belgium",50.855312700000006,3.8871129,Belgium
"Hull, East Yorkshire",53.74357220000001,-0.3394758,United Kingdom
"Kingsbridge, Devon",50.2848555,-3.7789738,United Kingdom
"Geisenbrunn, Bavaria",48.1077433,11.3263685,Germany
"Bardon Mill, Northumberland",54.9776,-2.349535,United Kingdom
"Pampisford, Cambridgeshire",52.1115476,0.184173,United Kingdom
"West Barsham, Norfolk",52.8680444,0.8273545,United Kingdom
"Dorfen, Bavaria",48.27463570000001,12.1530097,Germany
"Whitworth, Lancashire",53.6644268,-2.1734056,United Kingdom
"Mitterteich, Bavaria",49.9509605,12.2429771,Germany
"Bad Tölz, Bavaria",47.7610641,11.5582933,Germany
"Ambler, Pennsylvania",40.1545535,-75.22156509999998,United States of America
"Tunbridge Wells, Kent",51.13714829999999,0.2673446,United Kingdom
"Rottenburg am Neckar, Baden-Württemberg",48.47696,8.933678800000003,Germany
"Bloomfield, Connecticut",41.826488,-72.73009449999998,United States of America
"Ochsenfurt, Bavaria",49.6660102,10.0650833,Germany
"Bloomsbury, Greater London",51.523126,-0.1260664,United Kingdom
"Leominster, Herefordshire",52.2273558,-2.7375333,United Kingdom
"Neustadt, Ontario",44.0778278,-81.00066269999998,Canada
"Comstock Park, Michigan",43.0342874,-85.6655303,United States of America
"LaGrange, Georgia",33.039291,-85.03132690000002,United States of America
"Norwood, Massachusetts",42.194543,-71.19949759999999,United States of America
"Raytown, Missouri",39.0168425,-94.4630468,United States of America
"Oak Park, Illinois",41.88781450000001,-87.78876149999998,United States of America
"Middlebury, Vermont",44.00727360000001,-73.16330105415423,United States of America
"Zeil am Main, Bavaria",50.0137529,10.5948036,Germany
"Stillwater, Minnesota",45.0564041,-92.8134982,United States of America
"Wadena, Minnesota",46.5850936,-94.9606684,United States of America
"Ephrata, Pennsylvania",40.17991110000001,-76.17892420000003,United States of America
"Hilton, New York",43.2881104,-77.7928574,United States of America
"Lakeville, New York",41.1973166,-74.26042659999997,United States of America
"Heber City, Utah",40.5065256,-111.4133091,United States of America
"Philadelphia, Pennsylvania",39.9527237,-75.16352619999998,United States of America
"Fort Worth, Texas",32.753177,-97.3327459,United States of America
"Franklin, North Carolina",35.18231710000001,-83.3815429,United States of America
"West Sacramento, California",38.5804609,-121.530234,United States of America
"Victoriaville, Quebec",46.05737050000001,-71.95366740000001,Canada
"Boucherville, Quebec",45.60501970000001,-73.45261440000002,Canada
"Corvallis, Oregon",44.5645659,-123.2620435,United States of America
"Carp, Ontario",45.345148,-76.03671999999997,Canada
"Casper, Wyoming",42.866632,-106.313081,United States of America
"Elkins, West Virginia",38.925927,-79.8466552,United States of America
"Wigan, Lancashire",53.500809200000006,-2.63602928147074,United Kingdom
"Herefordshire, Herefordshire",52.0724751,-2.6994556,United Kingdom
"Amesbury, Massachusetts",42.8579536,-70.9300921,United States of America
"Tiverton, Devon",50.902735,-3.4891945,United Kingdom
"Westlake, Ohio",41.4553232,-81.91791740000002,United States of America
"Batley, West Yorkshire",53.716564,-1.6363856,United Kingdom
"Bodmin, Cornwall",50.470725,-4.7243205,United Kingdom
"Morecambe, Lancashire",54.0703282,-2.8685482,United Kingdom
"Lyons, Illinois",41.811108,-87.8232695,United States of America
"New Lenox, Illinois",41.5119761,-87.9656098,United States of America
"Oklahoma City , Oklahoma",35.4729886,-97.5170536,United States of America
"Plankstadt, Baden-Württemberg",49.3927294,8.593032899999999,Germany
"Mallersdorf-Pfaffenberg, Bavaria",48.7743081,12.2377855,Germany
"Schillsdorf-Hüttenwohld, Schleswig-Holstein",54.1095618,10.1261517,Germany
"Thirsk, North Yorkshire",54.2327725,-1.3423775,United Kingdom
"Lubumbashi, Dem Rep of Congo",,,
"Blauvelt, New York",41.069631,-73.95182433174313,United States of America
"Bishops Lydeard, Somerset",51.057726,-3.1874029,United Kingdom
"Pegnitz-Büchenbach, Bavaria",49.7889018,11.5060463,Germany
"Hewish, Somerset",50.872453,-2.825417,United Kingdom
"Pelton Fell, Durham",54.8576581,-1.6075766000000002,United Kingdom
"Newton St Cyres, Devon",50.7702368,-3.5885106,United Kingdom
"Maldon, Essex",51.731198,0.6791849,United Kingdom
"Braunschweig, Lower Saxony",52.26465770000001,10.5236066,Germany
"Belgrade, Montana",45.773279,-111.184535,United States of America
"Pickering, Ontario",43.835765,-79.090576,Canada
"Murrieta, California",33.560832,-117.2106564,United States of America
"Guelph                , Ontario",43.5460516,-80.2493276,Canada
"Oakville, Ontario",43.447436,-79.66667199999998,Canada
"Orangeville, Ontario",43.9193171,-80.0973754,Canada
"Tenterden, Kent",51.0700956,0.6888267,United Kingdom
"Faversham , Kent",51.3144088,0.8911894,United Kingdom
"Binegar, Somerset",51.2427853,-2.5514413,United Kingdom
"Williamsport, Pennsylvania",41.2493292,-77.0027671,United States of America
"Giengen an der Brenz, Baden-Württemberg",48.624521,10.243032,Germany
"Hackensack, New Jersey",40.8871438,-74.0410865,United States of America
"Tualatin, Oregon",45.38385460000001,-122.7663518,United States of America
"Chelsea, Massachusetts",42.3917638,-71.03282840000001,United States of America
"North Hampton, New Hampshire",42.97258950000001,-70.8297757,United States of America
"Magog, Quebec",45.265463,-72.147903,Canada
"Washington, DC, Washington DC",38.8949855,-77.03657079999998,United States of America
"Staten Island, New York",40.5834557,-74.14960479999998,United States of America
"Little Ferry, New Jersey",40.8528777,-74.0420848,United States of America
"Garnerville, New York",41.2017613,-73.9943068,United States of America
"Austin, Minnesota",43.6680928,-92.9744896,United States of America
"Bloomfield, Ontario",42.8950641,-77.4347128,United States of America
"La Pocatière, Quebec",47.369524,-70.035095,Canada
"Elora, Ontario",43.68112100000001,-80.429581,Canada
"Notre-Dame-des-Prairies, Quebec",46.0421555,-73.4351195,Canada
"Brant, Ontario",43.1010804,-80.4288217,Canada
"Pensacola , Florida",30.421309,-87.2169149,United States of America
"Ewing , Kentucky",38.4272984,-83.8632557,United States of America
"Achim, Lower Saxony",53.0068811,9.0425504,Germany
"Brandon, Vermont",43.79938350000001,-73.08420383255277,United States of America
"Lorton, Virginia",38.70433970000001,-77.220343,United States of America
"Beacon, New York",41.504879,-73.96968220000002,United States of America
"Rowrah, Cumbria",54.5536743,-3.4603094,United Kingdom
"Göttingen, Lower Saxony",51.5327604,9.9352051,Germany
"Günzburg, Bavaria",48.4539028,10.2785509,Germany
"Punta Gorda, Florida",26.9297836,-82.0453664,United States of America
"Canton , Ohio",40.7989522,-81.3784445,United States of America
"Newmarket, New Hampshire",43.082931,-70.935974,United States of America
"Ayr, Ontario",43.28551220000001,-80.4507012,Canada
"Chesterfield, Derbyshire",53.2352134,-1.4264097,United Kingdom
"Grafenau, Bavaria",48.85763970000001,13.393828400000002,Germany
"Suckley, Worcestershire",52.1611251,-2.4073580000000003,United Kingdom
"Woodstock, Georgia",34.1014112,-84.51921920000002,United States of America
"Stegaurach-Debring, Bavaria",49.8603378,10.8535782,Germany
"Titusville, Florida",28.6122187,-80.8075538,United States of America
"Minden, North Rhine-Westphalia",52.2881045,8.9168852,Germany
"Kings Cross, Greater London",51.5323954,-0.1230224,United Kingdom
